,Request #,Status,Request Type,Subrequest Type,Additional Subrequest Type,Date / Time Opened,Date / Time Closed,Request Origin,System of Origin ID,Contact Type,Preferred Language,State Issue,Parent Request,Closed When Created,Address,City,Council District,ZIP,Latitude,Longitude,Mapped Location
2257,330463,Closed,Property Violations,Short Term Rental Complaint,Short Term Rental Complaint,03/21/2020 12:58:21 AM,03/24/2020 03:13:38 PM,hubNashville Community,,,,False,,False,1005 9th Ave S,NASHVILLE,17.0,37203.0,36.14496199787841,-86.78084040480938,"(36.14496199787841, -86.78084040480937)"
2449,102477,In Progress,Property Violations,Short Term Rental Complaint,Short Term Rental Complaint,09/24/2018 06:29:49 PM,,hubNashville Community,,,,False,,False,2165 24th Ave N,NASHVILLE,2.0,37208.0,36.187695,-86.8155309,"(36.187695, -86.8155309)"
2793,334024,Closed,Property Violations,Short Term Rental Complaint,Short Term Rental Complaint,03/27/2020 01:57:43 AM,04/16/2020 07:12:14 AM,hubNashville Community,,,,False,,False,814 Inverness Ave,NASHVILLE,17.0,37204.0,36.1247208,-86.7789422,"(36.1247208, -86.7789422)"
2948,334949,Closed,Property Violations,Short Term Rental Complaint,Short Term Rental Complaint,03/29/2020 08:00:20 PM,04/03/2020 08:12:15 AM,hubNashville Community,,,,False,334948.0,False,1610 Wheless St,NASHVILLE,21.0,37208.0,36.176932,-86.807955,"(36.176932, -86.807955)"
3059,334870,Closed,Property Violations,Short Term Rental Complaint,Short Term Rental Complaint,03/28/2020 10:31:53 PM,03/30/2020 04:33:32 PM,hubNashville Community,,,,False,,False,1044 Mulberry Way,NASHVILLE,3.0,37207.0,36.25427089999999,-86.76672649999998,"(36.25427089999999, -86.76672649999999)"
3110,334285,Closed,Property Violations,Short Term Rental Complaint,Short Term Rental Complaint,03/27/2020 04:05:51 PM,04/22/2020 07:11:42 AM,hubNashville Community,,,,False,334272.0,False,637 Rocky Mountain Pkwy,ANTIOCH,28.0,37013.0,36.08467,-86.65664,"(36.08467, -86.65664)"
3540,339751,Closed,Property Violations,Short Term Rental Complaint,Short Term Rental Complaint,04/06/2020 12:08:35 AM,04/16/2020 07:12:43 AM,Mobile App,,,,False,,False,119 Elmhurst Ave,NASHVILLE,5.0,37207.0,36.1962114,-86.77373539999998,"(36.1962114, -86.77373539999999)"
4327,327790,Closed,Property Violations,Short Term Rental Complaint,Short Term Rental Complaint,03/17/2020 07:09:00 PM,03/20/2020 07:55:45 PM,Phone,,,,False,,False,1224 2nd Ave S,NASHVILLE,17.0,37210.0,36.14458,-86.76364000000001,"(36.14458, -86.76364)"
4709,371414,Closed,Property Violations,Short Term Rental Complaint,Short Term Rental Complaint,05/19/2020 12:25:07 PM,05/27/2020 07:18:28 AM,hubNashville Community,,,,False,,False,321 S 11th St,NASHVILLE,6.0,37206.0,36.1724153,-86.750339,"(36.1724153, -86.750339)"
4885,323752,Closed,Property Violations,Short Term Rental Complaint,Short Term Rental Complaint,03/10/2020 12:10:34 PM,03/13/2020 03:55:51 PM,hubNashville Community,,,,False,,False,210 Anne Dallas Dudley Blvd,NASHVILLE,19.0,37219.0,36.163000000000004,-86.78200000000001,"(36.163, -86.782)"
5107,427134,Closed,Permits,Short Term Rental Permit,Short Term Rental Permit,07/26/2020 09:51:46 PM,07/29/2020 08:01:32 PM,hubNashville Community,,,,False,,False,4911B Kentucky Ave,NASHVILLE,20.0,37209.0,36.15958,-86.8473,"(36.15958, -86.8473)"
5570,241148,Closed,Property Violations,Short Term Rental Complaint,Short Term Rental Complaint,09/03/2019 04:09:44 PM,04/16/2020 07:00:57 AM,Mobile App,,,,False,189914.0,False,1103 13th Ave S,NASHVILLE,19.0,37212.0,36.143598452882266,-86.78842954337597,"(36.143598452882266, -86.78842954337597)"
10065,403193,Closed,Permits,Short Term Rental Permit,Short Term Rental Permit,06/29/2020 05:23:24 PM,07/01/2020 04:28:52 PM,hubNashville Community,,,,False,,False,600 S 12th St,NASHVILLE,6.0,37206.0,36.16923,-86.74995,"(36.16923, -86.74995)"
15716,334023,Closed,Property Violations,Short Term Rental Complaint,Short Term Rental Complaint,03/27/2020 01:55:44 AM,04/16/2020 07:12:14 AM,hubNashville Community,,,,False,334024.0,False,814 Inverness Ave,NASHVILLE,17.0,37204.0,36.12472,-86.77894,"(36.12472, -86.77894)"
19237,338747,Closed,Property Violations,Short Term Rental Complaint,Short Term Rental Complaint,04/03/2020 05:14:45 PM,04/16/2020 07:13:02 AM,hubNashville Community,,,,False,,False,1213A Tremont Ave,NASHVILLE,19.0,37212.0,36.14387670000001,-86.7892123,"(36.1438767, -86.7892123)"
19634,326267,Closed,Property Violations,Short Term Rental Complaint,Short Term Rental Complaint,03/13/2020 06:53:31 PM,03/17/2020 08:35:05 PM,hubNashville Community,,,,False,,False,523 Weakley Ave,NASHVILLE,5.0,37207.0,36.19729139999999,-86.78189859999998,"(36.19729139999999, -86.78189859999999)"
20184,349623,Closed,Permits,Short Term Rental Permit,Short Term Rental Permit,04/21/2020 01:37:38 PM,04/21/2020 01:48:04 PM,Phone,,,,False,,False,906 Caruthers Ave,NASHVILLE,17.0,37204.0,36.1256817,-86.783937,"(36.1256817, -86.783937)"
20269,349154,Closed,Property Violations,Short Term Rental Complaint,Short Term Rental Complaint,04/20/2020 05:05:06 PM,04/21/2020 03:03:43 PM,hubNashville Community,,,,False,,False,1506 Phillips St,NASHVILLE,19.0,37208.0,36.16863,-86.80158,"(36.16863, -86.80158)"
20380,339573,Assigned,Permits,Short Term Rental Permit,Short Term Rental Permit,04/05/2020 03:25:43 PM,,hubNashville Community,,,,False,,False,4810 Briarwood Dr,,,,36.07787301157071,-86.75359985,"(36.07787301157071, -86.75359985)"
20459,442293,Closed,Permits,Short Term Rental Permit,Short Term Rental Permit,08/11/2020 02:48:53 PM,08/11/2020 06:29:06 PM,hubNashville Community,,,,False,,False,136 Lucile St,NASHVILLE,5.0,37207.0,36.1958066,-86.76854300000001,"(36.1958066, -86.768543)"
23081,326632,Closed,Property Violations,Short Term Rental Complaint,Short Term Rental Complaint,03/14/2020 09:30:13 PM,03/25/2020 08:12:31 AM,hubNashville Community,,,,False,,False,1005 9th Ave S,NASHVILLE,17.0,37203.0,36.14497337197066,-86.7808664971462,"(36.144973371970664, -86.7808664971462)"
24148,341648,Closed,Property Violations,Short Term Rental Complaint,Short Term Rental Complaint,04/07/2020 08:42:13 PM,04/25/2020 07:12:50 AM,hubNashville Community,,,,False,,False,1024 15th Ave S,NASHVILLE,19.0,37212.0,36.14485006159916,-86.790314,"(36.14485006159916, -86.790314)"
24305,349548,Closed,Property Violations,Short Term Rental Complaint,Short Term Rental Complaint,04/21/2020 05:43:48 AM,04/25/2020 07:15:17 AM,hubNashville Community,,,,False,,False,119 Mason Ave,NASHVILLE,21.0,37203.0,36.14381489999999,-86.81966790000001,"(36.14381489999999, -86.81966790000001)"
24624,350466,Closed,Permits,Short Term Rental Permit,Short Term Rental Permit,04/22/2020 02:34:29 PM,04/23/2020 02:34:44 PM,Phone,,,,False,,False,1411 Holly St,NASHVILLE,6.0,37206.0,36.17595729999999,-86.74499639999998,"(36.17595729999999, -86.74499639999999)"
25734,362954,In Progress,Property Violations,Short Term Rental Complaint,Short Term Rental Complaint,05/08/2020 06:51:04 PM,,hubNashville Community,,,,False,,False,1009 Iverson Ave,NASHVILLE,8.0,37216.0,36.2089251,-86.73906389999998,"(36.2089251, -86.73906389999999)"
25997,343227,Closed,Permits,Short Term Rental Permit,Short Term Rental Permit,04/09/2020 07:29:52 PM,04/14/2020 12:01:52 PM,hubNashville Community,,,,False,,False,903 Fatherland St,NASHVILLE,6.0,37206.0,36.1732314,-86.7554454,"(36.1732314, -86.7554454)"
27232,362610,Assigned,Property Violations,Short Term Rental Complaint,Short Term Rental Complaint,05/08/2020 03:13:48 PM,,Phone,,,,False,,False,320 Old Hickory Blvd,NASHVILLE,23.0,37221.0,36.090886,-86.91729699999998,"(36.090886, -86.91729699999999)"
27829,426190,Closed,Permits,Short Term Rental Permit,Short Term Rental Permit,07/24/2020 09:34:11 PM,07/28/2020 03:42:44 PM,Phone,,,,False,,False,1015 12th Ave S,NASHVILLE,17.0,37203.0,36.14533249999999,-86.7865825,"(36.14533249999999, -86.7865825)"
29157,326930,Closed,Property Violations,Short Term Rental Complaint,Short Term Rental Complaint,03/16/2020 01:57:54 PM,03/20/2020 07:27:01 PM,hubNashville Community,,,,False,,False,Vibe Pl,NASHVILLE,5.0,37216.0,36.203652399999996,-86.74219520000001,"(36.2036524, -86.7421952)"
29249,344824,New,Property Violations,Short Term Rental Complaint,Short Term Rental Complaint,04/13/2020 01:39:39 PM,,hubNashville Community,,,,False,,False,3126 Boulder Park Dr,NASHVILLE,14.0,37214.0,36.1532206,-86.64676279999998,"(36.1532206, -86.64676279999999)"
31418,376468,Closed,Permits,Short Term Rental Permit,Short Term Rental Permit,05/26/2020 04:56:37 PM,05/26/2020 08:13:00 PM,hubNashville Community,,,,False,,False,6212B California Ave,NASHVILLE,20.0,37209.0,36.167449299999994,-86.86283909999999,"(36.1674493, -86.8628391)"
35460,349547,Closed,Property Violations,Short Term Rental Complaint,Short Term Rental Complaint,04/21/2020 05:43:46 AM,04/25/2020 07:15:17 AM,Mobile App,,,,False,349548.0,False,119 Mason Ave,NASHVILLE,21.0,37203.0,36.14381489999999,-86.81966790000001,"(36.14381489999999, -86.81966790000001)"
35627,345596,Closed,Property Violations,Short Term Rental Complaint,Short Term Rental Complaint,04/14/2020 03:03:44 PM,05/01/2020 07:14:22 AM,hubNashville Community,,,,False,,False,926 Phillips St,NASHVILLE,19.0,37208.0,36.1719222,-86.79349040000001,"(36.1719222, -86.7934904)"
35862,348583,Closed,Property Violations,Short Term Rental Complaint,Short Term Rental Complaint,04/19/2020 04:01:51 AM,04/25/2020 07:13:29 AM,Mobile App,,,,False,,False,1737 Pecan St,NASHVILLE,2.0,37208.0,36.18680049999999,-86.8149392,"(36.18680049999999, -86.8149392)"
36071,349148,Closed,Property Violations,Short Term Rental Complaint,Short Term Rental Complaint,04/20/2020 05:01:11 PM,04/25/2020 07:13:29 AM,Phone,,,,False,348583.0,False,1737 Pecan St,NASHVILLE,2.0,37208.0,36.18680049999999,-86.8149392,"(36.18680049999999, -86.8149392)"
36238,359993,Closed,Permits,Short Term Rental Permit,Short Term Rental Permit,05/05/2020 09:50:11 PM,05/07/2020 11:43:47 AM,Phone,,,,False,,False,Holly St,NASHVILLE,6.0,37206.0,36.175654200000004,-86.74395439999998,"(36.1756542, -86.74395439999999)"
36640,346003,Closed,Permits,Short Term Rental Permit,Short Term Rental Permit,04/14/2020 09:08:13 PM,04/15/2020 11:18:01 AM,hubNashville Community,,,,False,,False,916 14th Ave N,NASHVILLE,19.0,37208.0,36.16771,-86.79899,"(36.16771, -86.79899)"
37388,93549,Closed,Property Violations,Short Term Rental Complaint,Short Term Rental Complaint,08/28/2018 09:41:24 PM,08/29/2018 03:29:10 PM,hubNashville Community,,,,False,,False,2606 Miami Avenue,NASHVILLE,15.0,37214.0,36.23965,-86.70959,"(36.23965, -86.70959)"
38041,446016,In Progress,Property Violations,Short Term Rental Complaint,Short Term Rental Complaint,08/16/2020 06:26:50 PM,,hubNashville Community,,,,False,255792.0,False,716 S 12th St,NASHVILLE,6.0,37206.0,36.1664463,-86.75017209999999,"(36.1664463, -86.7501721)"
38604,99402,Closed,Property Violations,Short Term Rental Complaint,Short Term Rental Complaint,09/15/2018 12:19:24 AM,06/25/2020 07:13:10 AM,hubNashville Community,,,,False,,False,823 Hillview Heights,NASHVILLE,17.0,37204.0,36.12593,-86.78069,"(36.12593, -86.78069)"
38616,99401,Closed,Property Violations,Short Term Rental Complaint,Short Term Rental Complaint,09/15/2018 12:15:37 AM,12/05/2018 08:04:35 AM,hubNashville Community,,Resident,,False,,False,422 BROADWAY,NASHVILLE,19.0,37203.0,36.1608260329722,-86.77824879155564,"(36.1608260329722, -86.77824879155563)"
40352,385761,Closed,Permits,Short Term Rental Permit,Short Term Rental Permit,06/05/2020 09:07:05 PM,06/09/2020 06:43:00 PM,hubNashville Community,,,,False,,False,1122 Woodvale Dr,NASHVILLE,25.0,37204.0,36.10241389999999,-86.7960095,"(36.10241389999999, -86.7960095)"
41562,382808,Closed,Permits,Short Term Rental Permit,Short Term Rental Permit,06/02/2020 11:26:44 PM,06/04/2020 12:34:17 PM,hubNashville Community,,,,False,,False,716 S 12th St,NASHVILLE,6.0,37206.0,36.16645,-86.75017,"(36.16645, -86.75017)"
41718,353769,Closed,Permits,Short Term Rental Permit,Short Term Rental Permit,04/27/2020 09:49:31 PM,04/28/2020 06:41:20 PM,hubNashville Community,,,,False,,False,410 E Trinity Ln,NASHVILLE,5.0,37207.0,36.20509210000001,-86.76019769999998,"(36.20509210000001, -86.76019769999999)"
42088,359991,Closed,Permits,Short Term Rental Permit,Short Term Rental Permit,05/05/2020 09:49:12 PM,05/07/2020 11:42:57 AM,hubNashville Community,,,,False,,False,1207 Gartland Ave,NASHVILLE,6.0,37206.0,36.17946091161389,-86.74748879325409,"(36.17946091161388, -86.7474887932541)"
43482,354725,Closed,Property Violations,Short Term Rental Complaint,Short Term Rental Complaint,04/29/2020 01:18:43 PM,05/01/2020 07:17:00 AM,Mobile App,,,,False,354728.0,False,119 Elmhurst Ave,NASHVILLE,5.0,37207.0,36.1962114,-86.77373539999998,"(36.1962114, -86.77373539999999)"
44266,357013,Closed,Permits,Short Term Rental Permit,Short Term Rental Permit,05/01/2020 08:24:47 PM,05/04/2020 01:12:17 PM,hubNashville Community,,,,False,,False,1352 Love Joy Ct,NASHVILLE,7.0,37216.0,36.20678,-86.72881,"(36.20678, -86.72881)"
44743,386309,Closed,Property Violations,Short Term Rental Complaint,Short Term Rental Complaint,06/08/2020 04:50:11 AM,06/08/2020 08:13:53 PM,hubNashville Community,,,,False,,False,405 Avoca St,NASHVILLE,21.0,37203.0,36.14677639999999,-86.8180043,"(36.1467764, -86.8180043)"
44852,438408,Closed,Property Violations,Short Term Rental Complaint,Short Term Rental Complaint,08/05/2020 06:22:08 PM,08/07/2020 07:09:53 AM,hubNashville Community,,,,False,,False,1504 18th Ave S,NASHVILLE,17.0,37212.0,36.13928029999999,-86.7960257,"(36.13928029999999, -86.7960257)"
45278,357443,Closed,Property Violations,Short Term Rental Complaint,Short Term Rental Complaint,05/03/2020 02:46:52 PM,05/13/2020 07:21:19 PM,Mobile App,,,,False,,False,508 S 13th St,,,,36.1702042,-86.7484928,"(36.1702042, -86.7484928)"
45329,357612,Closed,Property Violations,Short Term Rental Complaint,Short Term Rental Complaint,05/04/2020 12:47:52 AM,05/05/2020 04:08:16 PM,hubNashville Community,,,,False,,False,1610 Wheless St,,,,36.176932,-86.807955,"(36.176932, -86.807955)"
45415,159059,Closed,Property Violations,Short Term Rental Complaint,Short Term Rental Complaint,03/25/2019 03:47:13 PM,04/10/2019 07:09:00 AM,hubNashville Community,,,,False,,False,1715B 6th Ave N,NASHVILLE,19.0,37208.0,36.18234899999999,-86.79487110000002,"(36.18234899999999, -86.79487110000002)"
45565,158800,Closed,Property Violations,Short Term Rental Complaint,Short Term Rental Complaint,03/24/2019 04:19:34 PM,03/27/2019 08:11:50 AM,hubNashville Community,,,,False,,False,1005 9th Ave S,NASHVILLE,17.0,37203.0,36.14491630000001,-86.780734,"(36.14491630000001, -86.780734)"
45567,158799,Closed,Property Violations,Short Term Rental Complaint,Short Term Rental Complaint,03/24/2019 04:13:09 PM,04/06/2019 10:18:42 AM,hubNashville Community,,,,False,,False,960 9th Ave S,NASHVILLE,17.0,37203.0,36.1453334,-86.78041429999996,"(36.1453334, -86.78041429999996)"
45688,101922,Closed,Property Violations,Short Term Rental Complaint,Short Term Rental Complaint,09/21/2018 08:27:06 PM,01/30/2019 08:06:44 AM,hubNashville Community,,,,False,,False,612 Maplewood Ln,NASHVILLE,8.0,37216.0,36.227610999999996,-86.73954300000004,"(36.227611, -86.73954300000003)"
46073,102860,Closed,Property Violations,Short Term Rental Complaint,Short Term Rental Complaint,09/25/2018 05:31:18 PM,09/25/2018 08:05:57 PM,hubNashville Community,,,,False,,False,2831 Twin Lawn Dr,NASHVILLE,15.0,37214.0,36.1521473,-86.66157159999999,"(36.1521473, -86.6615716)"
47224,104393,Closed,Property Violations,Short Term Rental Complaint,Short Term Rental Complaint,09/29/2018 10:52:11 PM,10/01/2018 01:30:08 PM,Mobile App,,Resident,,False,,False,619A Moore Ave,NASHVILLE,17.0,37203.0,36.13754943561523,-86.77155006676912,"(36.13754943561523, -86.77155006676912)"
50408,369343,Closed,Permits,Short Term Rental Permit,Short Term Rental Permit,05/15/2020 06:58:00 PM,05/18/2020 12:59:55 PM,hubNashville Community,,,,False,,False,9021 Sawyer Brown Rd,NASHVILLE,22.0,37221.0,36.064170000000004,-86.94782,"(36.06417, -86.94782)"
50890,441207,Closed,Property Violations,Short Term Rental Complaint,Short Term Rental Complaint,08/10/2020 05:57:18 AM,09/10/2020 07:08:23 AM,hubNashville Community,,,,False,,False,502 Southgate Ave,NASHVILLE,17.0,37203.0,36.13584142916477,-86.7653873384373,"(36.13584142916477, -86.7653873384373)"
55174,371885,Closed,Property Violations,Short Term Rental Complaint,Short Term Rental Complaint,05/19/2020 05:33:12 PM,07/24/2020 07:40:05 AM,hubNashville Community,,,,False,,False,1707 16th Ave N,NASHVILLE,21.0,37208.0,36.17747543532438,-86.80775255284806,"(36.17747543532438, -86.80775255284806)"
56478,369973,Closed,Property Violations,Short Term Rental Complaint,Short Term Rental Complaint,05/17/2020 12:42:38 AM,05/18/2020 08:24:04 PM,hubNashville Community,,,,False,,False,321 S 11th St,NASHVILLE,6.0,37206.0,36.17245672777246,-86.75041592797396,"(36.17245672777246, -86.75041592797395)"
56728,369904,Closed,Property Violations,Short Term Rental Complaint,Short Term Rental Complaint,05/16/2020 06:53:03 PM,05/20/2020 07:24:54 AM,hubNashville Community,,,,False,369886.0,False,548 Rural Hill Rd,NASHVILLE,29.0,37217.0,36.085606211573975,-86.6228386932541,"(36.08560621157398, -86.6228386932541)"
57614,377748,Closed,Property Violations,Short Term Rental Complaint,Short Term Rental Complaint,05/27/2020 06:54:11 PM,05/29/2020 07:20:14 AM,hubNashville Community,,,,False,,False,1715 17th Ave N,NASHVILLE,21.0,37208.0,36.177351653912616,-86.80918610274394,"(36.17735165391262, -86.80918610274394)"
57780,377771,Closed,Property Violations,Short Term Rental Complaint,Short Term Rental Complaint,05/27/2020 07:06:10 PM,05/29/2020 07:21:08 AM,hubNashville Community,,,,False,,False,1736 16th Ave N,NASHVILLE,21.0,37208.0,36.17905861942143,-86.80829904014358,"(36.179058619421426, -86.80829904014358)"
60182,371055,Closed,Property Violations,Short Term Rental Complaint,Short Term Rental Complaint,05/18/2020 07:16:53 PM,05/19/2020 07:37:48 AM,Phone,,,,False,,False,1511 Cahal Ave,NASHVILLE,7.0,37206.0,36.19640800000001,-86.736059,"(36.19640800000001, -86.736059)"
60615,348752,Closed,Property Violations,Short Term Rental Complaint,Short Term Rental Complaint,04/20/2020 12:39:23 PM,06/06/2020 07:11:51 AM,hubNashville Community,,,,False,,False,1720 Northview Ave,NASHVILLE,7.0,37216.0,36.2005672,-86.73544910000003,"(36.2005672, -86.73544910000001)"
68780,481729,Closed,Property Violations,Short Term Rental Complaint,Short Term Rental Complaint,10/15/2020 06:36:24 PM,10/16/2020 10:50:20 AM,hubNashville Community,,,,False,,False,119 Mason Ave,NASHVILLE,21.0,37203.0,36.14381489999999,-86.81966790000001,"(36.14381489999999, -86.81966790000001)"
70031,366222,Closed,Property Violations,Short Term Rental Complaint,Short Term Rental Complaint,05/12/2020 11:12:20 PM,06/24/2020 07:16:14 AM,hubNashville Community,,,,False,,False,80 Peachtree St,NASHVILLE,16.0,37210.0,36.120150591975396,-86.73825664492962,"(36.120150591975396, -86.73825664492962)"
70700,442763,Closed,Permits,Short Term Rental Permit,Short Term Rental Permit,08/11/2020 08:16:46 PM,08/12/2020 12:27:44 PM,hubNashville Community,,,,False,,False,1102A Joseph Ave,NASHVILLE,5.0,37207.0,36.19028039999999,-86.77196610000001,"(36.19028039999999, -86.77196610000001)"
80152,443103,Closed,Permits,Short Term Rental Permit,Short Term Rental Permit,08/12/2020 01:23:19 PM,08/12/2020 01:41:20 PM,hubNashville Community,,,,False,,False,1237 2nd Ave S,NASHVILLE,17.0,37210.0,36.1438394,-86.76372239999998,"(36.1438394, -86.76372239999999)"
86002,80196,Closed,Property Violations,Short Term Rental Complaint,Short Term Rental Complaint,07/03/2018 08:41:56 PM,09/25/2018 08:15:48 PM,hubNashville Community,,,,False,,False,80 Peachtree St,NASHVILLE,16.0,37210.0,36.119853427722155,-86.73815791173756,"(36.119853427722155, -86.73815791173756)"
86267,412816,Closed,Property Violations,Short Term Rental Complaint,Short Term Rental Complaint,07/10/2020 01:04:52 PM,07/28/2020 07:04:46 AM,Phone,,,,False,,False,367 Gillette Rd,NASHVILLE,30.0,37211.0,36.0609691,-86.7099369,"(36.0609691, -86.7099369)"
86570,81723,Closed,Property Violations,Short Term Rental Complaint,Short Term Rental Complaint,07/10/2018 02:26:29 PM,10/24/2018 03:18:17 PM,hubNashville Community,,,,False,,False,80 Peachtree St,NASHVILLE,16.0,37210.0,36.12001,-86.73817,"(36.12001, -86.73817)"
87258,81609,Closed,Property Violations,Short Term Rental Complaint,Short Term Rental Complaint,07/09/2018 10:47:07 PM,07/10/2018 07:02:56 PM,hubNashville Community,,,,False,,False,2312 Elliston Place,NASHVILLE,21.0,37203.0,36.1498711,-86.80616020000002,"(36.1498711, -86.80616020000002)"
88879,377764,Closed,Property Violations,Short Term Rental Complaint,Short Term Rental Complaint,05/27/2020 07:01:50 PM,05/29/2020 07:21:29 AM,hubNashville Community,,,,False,,False,1735 16th Ave N,NASHVILLE,21.0,37208.0,36.178852587233635,-86.80885815992585,"(36.17885258723363, -86.80885815992585)"
90318,375361,In Progress,Property Violations,Short Term Rental Complaint,Short Term Rental Complaint,05/23/2020 04:38:03 AM,,hubNashville Community,,,,False,,False,947 Russell St,NASHVILLE,6.0,37206.0,36.175488661612206,-86.7523064,"(36.1754886616122, -86.7523064)"
90748,377746,Closed,Property Violations,Short Term Rental Complaint,Short Term Rental Complaint,05/27/2020 06:52:07 PM,05/29/2020 07:20:14 AM,hubNashville Community,,,,False,,False,1706 17th Ave N,NASHVILLE,21.0,37208.0,36.17718202814822,-86.80857213558193,"(36.17718202814823, -86.80857213558194)"
91903,407901,Closed,Property Violations,Short Term Rental Complaint,Short Term Rental Complaint,07/05/2020 04:42:43 PM,07/06/2020 03:50:49 PM,hubNashville Community,,,,False,,False,502 Southgate Ave,NASHVILLE,17.0,37203.0,36.13589326159537,-86.76551394999998,"(36.13589326159537, -86.76551394999998)"
91946,443658,Closed,Permits,Short Term Rental Permit,Short Term Rental Permit,08/12/2020 08:10:13 PM,08/12/2020 09:33:18 PM,Phone,,,,False,,False,Nashville,NASHVILLE,19.0,37219.0,36.1626638,-86.78160159999999,"(36.1626638, -86.7816016)"
94521,391789,Closed,Property Violations,Short Term Rental Complaint,Short Term Rental Complaint,06/14/2020 04:54:07 PM,06/15/2020 06:15:43 PM,hubNashville Community,,,,False,,False,121 30th Ave N,NASHVILLE,21.0,37203.0,36.144869899999996,-86.81538520000001,"(36.1448699, -86.8153852)"
96631,371863,Closed,Property Violations,Short Term Rental Complaint,Short Term Rental Complaint,05/19/2020 05:20:02 PM,05/30/2020 07:36:59 AM,hubNashville Community,,,,False,,False,1608 16th Ave N,NASHVILLE,21.0,37208.0,36.175889500000004,-86.80573270000001,"(36.1758895, -86.8057327)"
97914,239440,Closed,Property Violations,Short Term Rental Complaint,Short Term Rental Complaint,08/29/2019 01:05:16 AM,06/25/2020 07:13:10 AM,hubNashville Community,,,,False,99402.0,False,823 Hillview Heights,NASHVILLE,17.0,37204.0,36.125926899999996,-86.78069419999996,"(36.1259269, -86.78069419999997)"
98332,90893,Closed,Property Violations,Short Term Rental Complaint,Short Term Rental Complaint,08/16/2018 04:24:19 PM,10/18/2018 01:44:59 PM,hubNashville Community,,,,False,,False,1801 Woodland St,NASHVILLE,6.0,37206.0,36.17689436943835,-86.73785098972822,"(36.17689436943835, -86.73785098972822)"
99120,99387,Closed,Property Violations,Short Term Rental Complaint,Short Term Rental Complaint,09/14/2018 10:47:12 PM,06/29/2020 01:17:12 PM,hubNashville Community,,Resident,,False,,False,831 Goff,NASHVILLE,2.0,37208.0,36.18569,-86.80286,"(36.18569, -86.80286)"
99250,407585,Closed,Property Violations,Short Term Rental Complaint,Short Term Rental Complaint,07/04/2020 03:21:34 PM,07/16/2020 07:03:38 AM,Mobile App,,,,False,407641.0,False,912 Phillips St,NASHVILLE,19.0,37208.0,36.17219789999999,-86.7927054,"(36.17219789999999, -86.7927054)"
100159,457984,Closed,Property Violations,Short Term Rental Complaint,Short Term Rental Complaint,09/03/2020 07:53:53 PM,10/12/2020 07:10:12 AM,hubNashville Community,,,,False,,False,2550 Hibbitts Rd,NASHVILLE,15.0,37214.0,36.1605808,-86.67520460000001,"(36.1605808, -86.67520460000001)"
100537,407641,Closed,Property Violations,Short Term Rental Complaint,Short Term Rental Complaint,07/04/2020 06:10:32 PM,07/16/2020 07:03:38 AM,hubNashville Community,,,,False,,False,912 Phillips St,NASHVILLE,19.0,37208.0,36.17219789999999,-86.7927054,"(36.17219789999999, -86.7927054)"
100720,292682,Closed,Permits,Short Term Rental Permit,Short Term Rental Permit,01/14/2020 02:09:07 PM,01/14/2020 05:28:42 PM,hubNashville Community,,,,False,,False,303 N 16th St,NASHVILLE,6.0,37206.0,36.17903469999999,-86.74129239999998,"(36.17903469999999, -86.74129239999999)"
101338,380665,Closed,Property Violations,Short Term Rental Complaint,Short Term Rental Complaint,06/01/2020 01:16:15 AM,06/18/2020 07:37:58 AM,hubNashville Community,,,,False,375736.0,False,323 Cleveland St,NASHVILLE,5.0,37207.0,36.1871572,-86.76591450000001,"(36.1871572, -86.7659145)"
103567,289672,Closed,Permits,Short Term Rental Permit,Short Term Rental Permit,01/08/2020 01:08:13 PM,01/08/2020 04:54:28 PM,Mobile App,,,,False,,False,610 21st Ave N,NASHVILLE,21.0,37203.0,36.15937449999999,-86.80679620000001,"(36.15937449999999, -86.8067962)"
113390,435575,Closed,Property Violations,Short Term Rental Complaint,Short Term Rental Complaint,08/02/2020 08:31:11 PM,11/05/2020 08:09:10 AM,hubNashville Community,,,,False,435425.0,False,21B Fern Ave,NASHVILLE,5.0,37207.0,36.195755495266326,-86.77461929813305,"(36.195755495266326, -86.77461929813305)"
114017,437933,Closed,Property Violations,Short Term Rental Complaint,Short Term Rental Complaint,08/05/2020 01:04:18 PM,11/05/2020 08:09:10 AM,hubNashville Community,,,,False,435425.0,False,21B Fern Ave,NASHVILLE,5.0,37207.0,36.195731099999996,-86.77460529999998,"(36.1957311, -86.77460529999999)"
116111,440779,In Progress,Property Violations,Short Term Rental Complaint,Short Term Rental Complaint,08/08/2020 03:31:00 AM,,Mobile App,,,,False,,False,1517B Hayden Dr,NASHVILLE,7.0,37206.0,36.1942993,-86.7144941,"(36.1942993, -86.7144941)"
116265,99462,Closed,Property Violations,Short Term Rental Complaint,Short Term Rental Complaint,09/15/2018 06:41:33 PM,09/17/2018 01:54:12 PM,hubNashville Community,,,,False,,False,823 Hillview Heights,NASHVILLE,17.0,37204.0,36.125926899999996,-86.78069419999996,"(36.1259269, -86.78069419999997)"
116752,107020,Closed,Property Violations,Short Term Rental Complaint,Short Term Rental Complaint,10/08/2018 12:23:01 AM,10/08/2018 02:35:46 PM,hubNashville Community,,,,False,,False,215 6th Ave N,NASHVILLE,19.0,37219.0,36.163000000000004,-86.78199999999998,"(36.163, -86.78199999999998)"
117131,352845,Closed,Property Violations,Short Term Rental Complaint,Short Term Rental Complaint,04/26/2020 01:01:39 AM,05/13/2020 07:13:45 AM,hubNashville Community,,,,False,351916.0,False,604 Basswood Ave,NASHVILLE,20.0,37209.0,36.157357,-86.883549,"(36.157357, -86.883549)"
117186,352611,Closed,Property Violations,Short Term Rental Complaint,Short Term Rental Complaint,04/24/2020 09:47:06 PM,07/09/2020 07:35:40 AM,hubNashville Community,,,,False,352595.0,False,4879 Jonquil Dr,NASHVILLE,26.0,37211.0,36.0835733,-86.71854990000001,"(36.0835733, -86.71854990000001)"
117337,352184,Closed,Permits,Short Term Rental Permit,Short Term Rental Permit,04/24/2020 03:16:05 PM,04/24/2020 06:25:18 PM,hubNashville Community,,,,False,,False,210 Anne Dallas Dudley Blvd,NASHVILLE,19.0,37219.0,36.163000000000004,-86.78200000000001,"(36.163, -86.782)"
117349,352843,Closed,Property Violations,Short Term Rental Complaint,Short Term Rental Complaint,04/26/2020 12:39:42 AM,05/13/2020 07:13:45 AM,hubNashville Community,,,,False,351916.0,False,604 Basswood Ave,NASHVILLE,20.0,37209.0,36.157357,-86.883549,"(36.157357, -86.883549)"
117397,352939,Closed,Property Violations,Short Term Rental Complaint,Short Term Rental Complaint,04/26/2020 05:30:18 PM,04/27/2020 07:57:49 PM,Mobile App,,,,False,,False,706 S 12th St,,,,36.1672009,-86.7501771,"(36.1672009, -86.7501771)"
117617,98004,Closed,Property Violations,Short Term Rental Complaint,Short Term Rental Complaint,09/12/2018 05:51:29 PM,09/12/2018 07:01:52 PM,Mobile App,,Resident,,False,,False,619B Moore Ave,NASHVILLE,17.0,37203.0,36.137555411148774,-86.77161745727062,"(36.13755541114877, -86.77161745727062)"
117744,114218,Closed,Property Violations,Short Term Rental Complaint,Short Term Rental Complaint,11/04/2018 02:37:07 AM,06/29/2020 01:17:13 PM,hubNashville Community,,Resident,,False,99387.0,False,831 goff,NASHVILLE,2.0,37208.0,36.185687350135495,-86.80286154921859,"(36.18568735013549, -86.80286154921859)"
117873,405253,Closed,Permits,Short Term Rental Permit,Short Term Rental Permit,07/01/2020 05:56:39 PM,07/01/2020 07:10:38 PM,hubNashville Community,,,,False,,False,1517 14th Ave N,NASHVILLE,21.0,37208.0,36.1744573,-86.80348409999998,"(36.1744573, -86.80348409999999)"
118133,352936,Closed,Property Violations,Short Term Rental Complaint,Short Term Rental Complaint,04/26/2020 05:15:11 PM,04/27/2020 07:55:08 PM,Mobile App,,,,False,,False,1211 Davidson St,,,,36.162743400000004,-86.74907309999998,"(36.1627434, -86.74907309999999)"
120051,406234,Closed,Permits,Short Term Rental Permit,Short Term Rental Permit,07/02/2020 03:57:27 PM,07/02/2020 04:52:41 PM,hubNashville Community,,,,False,,False,5822 Morrow Rd,NASHVILLE,20.0,37209.0,36.161773100000005,-86.8595146,"(36.1617731, -86.8595146)"
120147,353537,Closed,Permits,Short Term Rental Permit,Short Term Rental Permit,04/27/2020 06:21:58 PM,04/27/2020 07:24:58 PM,hubNashville Community,,,,False,,False,3116 Kinross Ave,NASHVILLE,16.0,37211.0,36.1042845,-86.7331012,"(36.1042845, -86.7331012)"
120276,406187,Closed,Property Violations,Short Term Rental Complaint,Short Term Rental Complaint,07/02/2020 03:40:02 PM,07/08/2020 07:03:38 AM,hubNashville Community,,,,False,,False,5218 Indiana Ave,NASHVILLE,20.0,37209.0,36.15651879999999,-86.85133859999998,"(36.1565188, -86.85133859999999)"
123087,423451,Closed,Property Violations,Short Term Rental Complaint,Short Term Rental Complaint,07/22/2020 08:15:21 PM,07/24/2020 07:08:11 AM,hubNashville Community,,,,False,,False,1910 11th Ave N,NASHVILLE,21.0,37208.0,36.1833519,-86.8054209,"(36.1833519, -86.8054209)"
123458,374701,Closed,Property Violations,Short Term Rental Complaint,Short Term Rental Complaint,05/22/2020 02:43:30 PM,07/24/2020 07:40:05 AM,hubNashville Community,,,,False,371885.0,False,1707 16th Ave N,NASHVILLE,21.0,37208.0,36.1774562,-86.80771240000001,"(36.1774562, -86.8077124)"
123992,414227,In Progress,Property Violations,Short Term Rental Complaint,Short Term Rental Complaint,07/12/2020 06:26:04 PM,,hubNashville Community,,,,False,407702.0,False,321 Pineway Dr,NASHVILLE,13.0,37217.0,36.114078000000006,-86.697999,"(36.114078, -86.697999)"
124014,114205,In Progress,Property Violations,Short Term Rental Complaint,Short Term Rental Complaint,11/03/2018 09:45:23 PM,,hubNashville Community,,Resident,,False,,False,903B Virginia,NASHVILLE,8.0,37216.0,36.222625208391385,-86.73190418414602,"(36.22262520839138, -86.73190418414603)"
124845,114307,In Progress,Property Violations,Short Term Rental Complaint,Short Term Rental Complaint,11/05/2018 02:37:30 AM,,hubNashville Community,,Resident,,False,,False,1029 cheatham,NASHVILLE,19.0,37208.0,36.17424201533786,-86.7992111479459,"(36.17424201533786, -86.7992111479459)"
126202,411061,In Progress,Property Violations,Short Term Rental Complaint,Short Term Rental Complaint,07/08/2020 06:07:03 PM,,hubNashville Community,,,,False,271799.0,False,900B Locklayer St,NASHVILLE,19.0,37208.0,36.1710939,-86.7913729,"(36.1710939, -86.7913729)"
126882,420117,Closed,Property Violations,Short Term Rental Complaint,Short Term Rental Complaint,07/18/2020 05:04:23 PM,07/20/2020 07:26:50 PM,hubNashville Community,,,,False,,False,1001 9th Ave S,NASHVILLE,17.0,37203.0,36.14502030535467,-86.7808234767212,"(36.14502030535467, -86.78082347672118)"
127072,420304,Closed,Property Violations,Short Term Rental Complaint,Short Term Rental Complaint,07/19/2020 03:47:23 AM,07/20/2020 07:37:17 PM,hubNashville Community,,,,False,,False,1005 9th Ave S,NASHVILLE,17.0,37203.0,36.14494037640998,-86.78085348764624,"(36.14494037640998, -86.78085348764624)"
129651,427145,In Progress,Property Violations,Short Term Rental Complaint,Short Term Rental Complaint,07/26/2020 10:22:33 PM,,hubNashville Community,,,,False,,False,235 Sterling St,NASHVILLE,20.0,37209.0,36.1569765,-86.86329370000001,"(36.1569765, -86.86329370000001)"
131424,414223,Closed,Property Violations,Short Term Rental Complaint,Short Term Rental Complaint,07/12/2020 06:19:10 PM,07/16/2020 07:05:20 AM,hubNashville Community,,,,False,,False,1411B Meridian St,NASHVILLE,5.0,37207,36.1977696,-86.7665137,"(36.1977696, -86.7665137)"
131674,135119,Closed,Property Violations,Short Term Rental Complaint,Short Term Rental Complaint,01/28/2019 04:03:37 AM,03/02/2019 08:06:37 AM,hubNashville Community,,,,False,,False,1108 Russell St,NASHVILLE,6.0,37206,36.174987200000004,-86.74940950000001,"(36.1749872, -86.74940950000001)"
132521,137377,Closed,Property Violations,Short Term Rental Complaint,Short Term Rental Complaint,02/04/2019 05:05:41 PM,03/02/2019 08:06:51 AM,hubNashville Community,,,,False,,False,4505 Georgia Ave,NASHVILLE,20.0,37209,36.1554539,-86.84173790000001,"(36.1554539, -86.8417379)"
132548,137697,Closed,Property Violations,Short Term Rental Complaint,Short Term Rental Complaint,02/05/2019 03:00:27 AM,03/02/2019 08:06:51 AM,hubNashville Community,,,,False,137377.0,False,4505 Georgia Ave,NASHVILLE,20.0,37209,36.1554539,-86.84173790000001,"(36.1554539, -86.8417379)"
132873,415740,Closed,Property Violations,Short Term Rental Complaint,Short Term Rental Complaint,07/14/2020 02:46:14 PM,07/17/2020 07:06:32 AM,hubNashville Community,,,,False,,False,310 Radnor St,NASHVILLE,16.0,37211,36.10538100000001,-86.740804,"(36.10538100000001, -86.740804)"
133179,371872,Closed,Property Violations,Short Term Rental Complaint,Short Term Rental Complaint,05/19/2020 05:24:56 PM,07/24/2020 07:40:05 AM,hubNashville Community,,,,False,371885.0,False,1705 16th Ave N,NASHVILLE,21.0,37208,36.17730090000001,-86.80769570000001,"(36.17730090000001, -86.8076957)"
134838,391809,Closed,Property Violations,Short Term Rental Complaint,Short Term Rental Complaint,06/14/2020 06:45:14 PM,06/15/2020 04:02:47 PM,hubNashville Community,,,,False,,False,1808B Branch St,NASHVILLE,7.0,37216,36.2000713,-86.7254233,"(36.2000713, -86.7254233)"
135126,392957,Closed,Property Violations,Short Term Rental Complaint,Short Term Rental Complaint,06/16/2020 03:22:36 AM,06/23/2020 07:40:47 AM,hubNashville Community,,,,False,,False,2412 Vaulx Ln,NASHVILLE,17.0,37204,36.125099799999994,-86.7815287,"(36.1250998, -86.7815287)"
136551,423301,Closed,Permits,Short Term Rental Permit,Short Term Rental Permit,07/22/2020 06:12:09 PM,07/23/2020 04:39:42 PM,Mobile App,,,,False,,False,1007 Riverside Dr,NASHVILLE,6.0,37206,36.1876594,-86.72609859999999,"(36.1876594, -86.7260986)"
140350,325575,Assigned,Permits,Short Term Rental Permit,Short Term Rental Permit,03/12/2020 06:31:35 PM,,Phone,,,,False,,False,615 Lane Ct,NASHVILLE,2.0,37207,36.222429999999996,-86.80683,"(36.22243, -86.80683)"
154012,441012,Closed,Property Violations,Short Term Rental Complaint,Short Term Rental Complaint,08/09/2020 05:19:51 AM,10/14/2020 07:05:32 AM,hubNashville Community,,,,False,441011.0,False,1711 Sevier St,NASHVILLE,6.0,37206,36.166343,-86.7397122,"(36.166343, -86.7397122)"
161498,140398,Closed,Property Violations,Short Term Rental Complaint,Short Term Rental Complaint,02/10/2019 02:42:32 AM,02/11/2019 05:21:13 PM,hubNashville Community,,,,False,,False,Scovel St,NASHVILLE,21.0,37208,36.170509,-86.80708729999998,"(36.170509, -86.80708729999998)"
161532,152394,Closed,Property Violations,Short Term Rental Complaint,Short Term Rental Complaint,03/11/2019 01:10:38 PM,03/12/2019 02:14:55 PM,hubNashville Community,,,,False,,False,1005 9th Ave S,NASHVILLE,17.0,37203,36.14490207438397,-86.78051665586572,"(36.14490207438397, -86.78051665586572)"
161554,142009,Closed,Property Violations,Short Term Rental Complaint,Short Term Rental Complaint,02/13/2019 09:08:28 PM,09/19/2019 07:18:51 AM,hubNashville Community,,,,False,,False,3105 Vanderbilt Pl,NASHVILLE,18.0,37212,36.1407856,-86.81483600000001,"(36.1407856, -86.81483600000001)"
161854,8584,Closed,Permits,Short Term Rental Permit,Short Term Rental Permit,08/15/2017 04:29:36 PM,09/07/2017 04:31:34 PM,Phone,,Resident,,False,,False,1115 Gartland Ave,NASHVILLE,6.0,37206,36.1796,-86.74847,"(36.1796, -86.74847)"
162805,168166,Closed,Permits,Short Term Rental Permit,Short Term Rental Permit,04/11/2019 06:21:15 PM,04/12/2019 08:08:34 PM,Phone,,,,False,,False,1241 Ardee Ave,NASHVILLE,7.0,37216,36.2162622,-86.72057910000002,"(36.2162622, -86.72057910000001)"
162880,170481,Closed,Property Violations,Short Term Rental Complaint,Short Term Rental Complaint,04/17/2019 02:54:00 AM,09/04/2019 07:16:30 AM,hubNashville Community,,,,False,148581.0,False,548 Rural Hill Rd,NASHVILLE,29.0,37217,36.085589,-86.62282259999999,"(36.085589, -86.6228226)"
162904,171229,Closed,Property Violations,Short Term Rental Complaint,Short Term Rental Complaint,04/18/2019 01:06:07 AM,10/01/2019 07:00:44 AM,hubNashville Community,,,,False,,False,309 N 9th St,NASHVILLE,5.0,37206,36.180045099999994,-86.75827329999998,"(36.18004509999999, -86.75827329999998)"
162933,173214,Closed,Property Violations,Short Term Rental Complaint,Short Term Rental Complaint,04/23/2019 01:54:09 AM,04/23/2019 08:26:06 PM,hubNashville Community,,,,False,,False,4505 Georgia Ave,,,,36.1554539,-86.84173790000001,"(36.1554539, -86.8417379)"
162974,172978,Closed,Property Violations,Short Term Rental Complaint,Short Term Rental Complaint,04/22/2019 06:12:24 PM,04/22/2019 07:42:42 PM,hubNashville Community,,,,False,,False,914 14th Ave S,NASHVILLE,19.0,37212,36.1468697,-86.78858430000002,"(36.1468697, -86.78858430000002)"
163028,175776,Closed,Property Violations,Short Term Rental Complaint,Short Term Rental Complaint,04/27/2019 10:42:43 PM,06/05/2019 07:02:20 AM,hubNashville Community,,,,False,,False,1910 Dahlia Cir,NASHVILLE,15.0,37210,36.16307557484565,-86.71060369950148,"(36.16307557484565, -86.71060369950149)"
163133,177162,Closed,Permits,Short Term Rental Permit,Short Term Rental Permit,05/01/2019 07:47:38 AM,05/03/2019 05:50:14 PM,hubNashville Community,,,,False,,False,3527 Central Ave,NASHVILLE,24.0,37205,36.137181861595934,-86.82536409325405,"(36.13718186159594, -86.82536409325405)"
163142,178594,Closed,Permits,Short Term Rental Permit,Short Term Rental Permit,05/03/2019 11:14:29 AM,05/03/2019 03:39:19 PM,hubNashville Community,,,,False,,False,3213 River Walk Dr,NASHVILLE,14.0,37214,36.1792233,-86.63747409999996,"(36.1792233, -86.63747409999996)"
163216,134971,In Progress,Property Violations,Short Term Rental Complaint,Short Term Rental Complaint,01/26/2019 08:12:34 PM,,hubNashville Community,,,,False,,False,1800 Porter Rd,NASHVILLE,7.0,37206,36.196135999999996,-86.72088099999996,"(36.196136, -86.72088099999996)"
163229,177588,Closed,Permits,Short Term Rental Permit,Short Term Rental Permit,05/01/2019 06:34:05 PM,05/07/2019 03:26:26 PM,hubNashville Community,,,,False,,False,4003 Nebraska Ave,NASHVILLE,24.0,37209,36.14281641159833,-86.83313780674592,"(36.14281641159833, -86.83313780674592)"
163308,179433,Closed,Permits,Short Term Rental Permit,Short Term Rental Permit,05/05/2019 08:22:43 PM,05/06/2019 04:23:43 PM,hubNashville Community,,,,False,,False,1633 Northview Ave,NASHVILLE,7.0,37216,36.1983692,-86.73518979999999,"(36.1983692, -86.7351898)"
163365,179316,Closed,Property Violations,Short Term Rental Complaint,Short Term Rental Complaint,05/04/2019 09:42:08 PM,09/07/2019 07:01:24 AM,hubNashville Community,,,,False,,False,1114 Forrest Ave,NASHVILLE,6.0,37206,36.178307543461855,-86.74865642679791,"(36.17830754346185, -86.74865642679791)"
163367,179235,Closed,Property Violations,Short Term Rental Complaint,Short Term Rental Complaint,05/04/2019 01:56:07 AM,11/09/2019 08:02:42 AM,hubNashville Community,,,,False,,False,1819 10th Ave S,NASHVILLE,17.0,37203,36.135211700000006,-86.78500739999998,"(36.13521170000001, -86.78500739999998)"
163371,179804,Closed,Property Violations,Short Term Rental Complaint,Short Term Rental Complaint,05/06/2019 04:37:02 PM,11/26/2019 08:01:45 AM,hubNashville Community,,,,False,,False,2525 Brittany Dr,NASHVILLE,6.0,37206,36.17673140000001,-86.71583770000002,"(36.17673140000001, -86.71583770000001)"
163430,179436,Closed,Property Violations,Short Term Rental Complaint,Short Term Rental Complaint,05/05/2019 09:03:58 PM,07/16/2019 07:03:05 AM,hubNashville Community,,,,False,,False,904B 15th Ave S,NASHVILLE,19.0,37212,36.1473886,-86.7896988,"(36.1473886, -86.7896988)"
165166,189900,Closed,Property Violations,Short Term Rental Complaint,Short Term Rental Complaint,05/27/2019 03:08:52 PM,11/26/2019 08:02:04 AM,Mobile App,,,,False,,False,523 Weakley Ave,NASHVILLE,5.0,37207.0,36.19729131199745,-86.78189869970083,"(36.197291311997446, -86.78189869970083)"
165169,189899,Closed,Property Violations,Short Term Rental Complaint,Short Term Rental Complaint,05/27/2019 02:59:30 PM,03/19/2020 08:00:39 AM,Mobile App,,,,False,,False,28 N Hill St,NASHVILLE,17.0,37210.0,36.14534693251494,-86.76073305308819,"(36.14534693251494, -86.76073305308819)"
165182,189914,Closed,Property Violations,Short Term Rental Complaint,Short Term Rental Complaint,05/27/2019 04:41:02 PM,04/17/2020 07:00:51 AM,Mobile App,,,,False,,False,1103 13th Ave S,NASHVILLE,19.0,37212.0,36.143598452882266,-86.78842954337597,"(36.143598452882266, -86.78842954337597)"
165256,193219,Closed,Property Violations,Short Term Rental Complaint,Short Term Rental Complaint,06/03/2019 03:29:57 AM,08/22/2019 07:01:14 AM,hubNashville Community,,,,False,179246.0,False,4505 Georgia Ave,NASHVILLE,20.0,37209.0,36.1554539,-86.84173790000001,"(36.1554539, -86.8417379)"
165290,195710,Closed,Property Violations,Short Term Rental Complaint,Short Term Rental Complaint,06/06/2019 04:17:11 PM,09/12/2019 07:03:49 AM,hubNashville Community,,,,False,195683.0,False,126A Fern Ave,NASHVILLE,2.0,37207.0,36.1966442,-86.78138899999998,"(36.1966442, -86.78138899999999)"
165294,196808,Closed,Property Violations,Short Term Rental Complaint,Short Term Rental Complaint,06/08/2019 01:06:17 AM,08/23/2019 07:04:01 AM,hubNashville Community,,,,False,,False,321 S 11th St,NASHVILLE,6.0,37206.0,36.1724481201743,-86.75053746070186,"(36.172448120174295, -86.75053746070188)"
165429,191860,Closed,Permits,Short Term Rental Permit,Short Term Rental Permit,05/30/2019 03:50:22 PM,05/31/2019 02:45:37 PM,hubNashville Community,,,,False,,False,215 6th Ave N,NASHVILLE,19.0,37219.0,36.163000000000004,-86.78199999999998,"(36.163, -86.78199999999998)"
165475,191587,Closed,Permits,Short Term Rental Permit,Short Term Rental Permit,05/30/2019 11:13:20 AM,05/31/2019 02:44:40 PM,Mobile App,,,,False,,False,1817 Knowles St,NASHVILLE,21.0,37208.0,36.1719884,-86.80907719999998,"(36.1719884, -86.80907719999999)"
165582,193578,Closed,Property Violations,Short Term Rental Complaint,Short Term Rental Complaint,06/03/2019 05:20:24 PM,06/03/2019 08:26:25 PM,hubNashville Community,,,,False,,False,2308 Scott Ave,NASHVILLE,7.0,37216.0,36.2010589,-86.7332007,"(36.2010589, -86.7332007)"
165694,193545,Closed,Property Violations,Short Term Rental Complaint,Short Term Rental Complaint,06/03/2019 04:45:51 PM,10/17/2019 07:02:20 AM,hubNashville Community,,,,False,,False,3905 Park Ave,NASHVILLE,24.0,37209.0,36.1511167,-86.83291910000004,"(36.1511167, -86.83291910000003)"
165838,203775,Closed,Property Violations,Short Term Rental Complaint,Short Term Rental Complaint,06/22/2019 03:05:35 AM,09/13/2019 07:03:55 AM,hubNashville Community,,,,False,,False,807 18th Ave S,NASHVILLE,19.0,37203.0,36.149664666945576,-86.79459534944306,"(36.14966466694558, -86.79459534944304)"
165872,207195,Closed,Permits,Short Term Rental Permit,Short Term Rental Permit,06/27/2019 09:56:25 PM,06/28/2019 02:43:45 PM,Phone,,,,False,,False,1101 Ozark St,NASHVILLE,6.0,37206.0,36.163421,-86.75196,"(36.163421, -86.75196)"
166182,208009,Closed,Property Violations,Short Term Rental Complaint,Short Term Rental Complaint,06/30/2019 01:48:07 PM,07/02/2019 02:33:09 PM,hubNashville Community,,,,False,,False,960 9th Ave S,NASHVILLE,17.0,37203.0,36.14542,-86.78041999999999,"(36.14542, -86.78042)"
167984,203840,Closed,Property Violations,Short Term Rental Complaint,Short Term Rental Complaint,06/22/2019 06:26:35 PM,09/24/2019 07:05:11 AM,hubNashville Community,,,,False,,False,1005 9th Ave S,NASHVILLE,17.0,37203.0,36.144885960446075,-86.780874058751,"(36.14488596044608, -86.780874058751)"
169189,212821,Closed,Property Violations,Short Term Rental Complaint,Short Term Rental Complaint,07/10/2019 06:48:00 PM,07/10/2019 08:42:34 PM,Phone,,,,False,,False,1018 ALICE ST,NASHVILLE,2.0,37218.0,36.20304,-86.81129,"(36.20304, -86.81129)"
169439,215009,Closed,Permits,Short Term Rental Permit,Short Term Rental Permit,07/15/2019 05:40:52 PM,07/17/2019 04:28:02 PM,hubNashville Community,,,,False,,False,1212 Ashwood Ave,NASHVILLE,18.0,37212.0,36.129017100000006,-86.7900209,"(36.1290171, -86.7900209)"
169730,134974,In Progress,Property Violations,Short Term Rental Complaint,Short Term Rental Complaint,01/26/2019 08:28:13 PM,,hubNashville Community,,,,False,,False,1431 Lischey Ave,NASHVILLE,5.0,37207.0,36.19855130000001,-86.76152530000002,"(36.19855130000001, -86.76152530000002)"
170147,214537,Closed,Property Violations,Short Term Rental Complaint,Short Term Rental Complaint,07/14/2019 02:49:18 PM,07/17/2019 07:14:37 AM,hubNashville Community,,,,False,,False,960 9th Ave S,NASHVILLE,17.0,37203.0,36.1452271,-86.78035139999996,"(36.1452271, -86.78035139999997)"
170163,214538,Closed,Property Violations,Short Term Rental Complaint,Short Term Rental Complaint,07/14/2019 02:51:02 PM,07/17/2019 07:14:55 AM,hubNashville Community,,,,False,,False,956 9th Ave S,NASHVILLE,17.0,37203.0,36.1453732,-86.7801839,"(36.1453732, -86.7801839)"
170912,209720,Closed,Property Violations,Short Term Rental Complaint,Short Term Rental Complaint,07/03/2019 03:29:04 PM,08/06/2019 07:07:52 AM,hubNashville Community,,,,False,,False,1312 15th Ave S,NASHVILLE,17.0,37212.0,36.14078,-86.79091,"(36.14078, -86.79091)"
171299,210672,Closed,Property Violations,Short Term Rental Complaint,Short Term Rental Complaint,07/05/2019 09:57:20 PM,11/08/2019 08:06:02 AM,Mobile App,,,,False,,False,706 S 12th St,NASHVILLE,6.0,37206.0,36.1672009,-86.7501771,"(36.1672009, -86.7501771)"
171466,211463,Closed,Permits,Short Term Rental Permit,Short Term Rental Permit,07/08/2019 06:19:51 PM,07/08/2019 07:52:14 PM,Phone,,,,False,,False,3818 Moss Rose Dr,NASHVILLE,7.0,37216.0,36.2078783,-86.70105660000002,"(36.2078783, -86.70105660000002)"
173546,156661,In Progress,Property Violations,Short Term Rental Complaint,Short Term Rental Complaint,03/20/2019 03:53:42 AM,,hubNashville Community,,,,False,127478.0,False,4505 Georgia Ave,NASHVILLE,20.0,37209.0,36.1554539,-86.84173790000001,"(36.1554539, -86.8417379)"
174323,221431,Closed,Property Violations,Short Term Rental Complaint,Short Term Rental Complaint,07/27/2019 06:12:44 PM,11/26/2019 08:02:04 AM,hubNashville Community,,,,False,189901.0,False,11 N Hill St,NASHVILLE,17.0,37210.0,36.1450236,-86.76170639999998,"(36.1450236, -86.76170639999998)"
174817,95123,Closed,Permits,Short Term Rental Permit,Short Term Rental Permit,09/05/2018 03:58:14 PM,09/07/2018 06:20:27 PM,Phone,,Resident,,False,,False,,,,,,,
177014,324590,Closed,Property Violations,Short Term Rental Complaint,Short Term Rental Complaint,03/11/2020 02:29:35 PM,08/20/2020 07:21:30 AM,Phone,,,,False,,False,911 N 5th St,NASHVILLE,5.0,37207.0,36.187155700000005,-86.76271120000001,"(36.1871557, -86.7627112)"
178545,441011,Closed,Property Violations,Short Term Rental Complaint,Short Term Rental Complaint,08/09/2020 05:15:48 AM,10/14/2020 07:05:32 AM,hubNashville Community,,,,False,,False,1711 Sevier St,NASHVILLE,6.0,37206.0,36.166343,-86.7397122,"(36.166343, -86.7397122)"
178921,89854,Closed,Permits,Short Term Rental Permit,Short Term Rental Permit,08/13/2018 12:23:00 PM,08/13/2018 02:13:05 PM,Phone,,,,False,,False,,,,,,,
179694,227828,Closed,Permits,Short Term Rental Permit,Short Term Rental Permit,08/08/2019 01:27:45 AM,11/06/2019 05:06:37 PM,hubNashville Community,,,,False,,False,1009 N 16th St,,,,36.187294200000004,-86.73981950000002,"(36.1872942, -86.73981950000001)"
180168,405493,Closed,Property Violations,Short Term Rental Complaint,Short Term Rental Complaint,07/01/2020 08:33:58 PM,07/07/2020 03:08:54 PM,Phone,,,,False,,False,2002 10th Ave N,NASHVILLE,2.0,37208.0,36.18495,-86.80436,"(36.18495, -86.80436)"
180291,218765,Closed,Property Violations,Short Term Rental Complaint,Short Term Rental Complaint,07/23/2019 12:18:19 AM,07/24/2019 01:04:57 PM,hubNashville Community,,,,False,,False,1050 E Trinity Ln,NASHVILLE,5.0,37216.0,36.2038661,-86.74156819999996,"(36.2038661, -86.74156819999996)"
180337,226693,Closed,Property Violations,Short Term Rental Complaint,Short Term Rental Complaint,08/06/2019 07:33:54 PM,10/09/2019 07:08:29 AM,hubNashville Community,,,,False,,False,1016 B Wedgewood Ave,NASHVILLE,17.0,37203.0,36.13613,-86.78635,"(36.13613, -86.78635)"
180338,226907,Closed,Property Violations,Short Term Rental Complaint,Short Term Rental Complaint,08/07/2019 01:10:22 AM,09/18/2019 07:08:36 AM,Mobile App,,,,False,,False,1304B Montgomery Ave,NASHVILLE,5.0,37207.0,36.19422804116361,-86.75618939101696,"(36.194228041163605, -86.75618939101696)"
180362,150508,Closed,Property Violations,Short Term Rental Complaint,Short Term Rental Complaint,03/06/2019 02:25:34 AM,07/23/2019 07:14:32 AM,hubNashville Community,,,,False,,False,613 27th Ave N,,,,36.157565700000006,-86.816642,"(36.15756570000001, -86.816642)"
180363,470531,Closed,Permits,Short Term Rental Permit,Short Term Rental Permit,09/24/2020 10:03:06 PM,09/25/2020 02:13:29 PM,hubNashville Community,,,,False,,False,926 W Eastland Ave,NASHVILLE,5.0,37206.0,36.184914511616185,-86.75570230674592,"(36.18491451161619, -86.7557023067459)"
180450,121453,Closed,Property Violations,Short Term Rental Complaint,Short Term Rental Complaint,12/06/2018 03:44:32 AM,02/12/2019 08:01:49 AM,Mobile App,,,,False,,False,1211 Davidson St,NASHVILLE,6.0,37206.0,36.162743400000004,-86.74907309999998,"(36.1627434, -86.74907309999999)"
180552,230343,Closed,Permits,Short Term Rental Permit,Short Term Rental Permit,08/13/2019 01:56:18 AM,08/14/2019 03:06:55 PM,hubNashville Community,,,,False,,False,6528 Mercomatic Ct,NASHVILLE,20.0,37209.0,36.14420306159892,-86.87596279325408,"(36.144203061598915, -86.87596279325408)"
180562,230344,Closed,Permits,Short Term Rental Permit,Short Term Rental Permit,08/13/2019 02:03:31 AM,08/13/2019 12:47:06 PM,hubNashville Community,,,,False,,False,6528 Mercomatic Ct,NASHVILLE,20.0,37209.0,36.144138500000004,-86.87594669999999,"(36.1441385, -86.87594669999999)"
180635,230332,Closed,Property Violations,Short Term Rental Complaint,Short Term Rental Complaint,08/12/2019 11:55:32 PM,08/22/2019 07:15:12 AM,hubNashville Community,,,,False,,False,3818 Moss Rose Dr,NASHVILLE,7.0,37216.0,36.2078783,-86.70105660000002,"(36.2078783, -86.70105660000002)"
180641,232126,Closed,Permits,Short Term Rental Permit,Short Term Rental Permit,08/15/2019 03:39:59 PM,11/06/2019 05:08:15 PM,Phone,,,,False,,False,919 Virginia Ave,NASHVILLE,8.0,37216.0,36.222639799999996,-86.7308625,"(36.2226398, -86.7308625)"
180657,230972,Closed,Permits,Short Term Rental Permit,Short Term Rental Permit,08/13/2019 08:47:46 PM,08/14/2019 03:06:20 PM,Phone,,,,False,,False,1629 Chase St,NASHVILLE,7.0,37216.0,36.197983,-86.73393950000002,"(36.197983, -86.73393950000002)"
180671,231837,Closed,Property Violations,Short Term Rental Complaint,Short Term Rental Complaint,08/15/2019 12:24:50 AM,09/18/2019 07:08:55 AM,hubNashville Community,,,,False,,False,925A BENTON AVE,NASHVILLE,17.0,37204.0,36.13180444001996,-86.78485296105418,"(36.131804440019955, -86.78485296105418)"
180815,114219,Closed,Property Violations,Short Term Rental Complaint,Short Term Rental Complaint,11/04/2018 02:55:38 AM,02/05/2019 08:08:03 AM,hubNashville Community,,Resident,,False,99396.0,False,829 goff,NASHVILLE,2.0,37208.0,36.18572351580231,-86.80271010390571,"(36.18572351580231, -86.80271010390572)"
180862,108407,Closed,Property Violations,Short Term Rental Complaint,Short Term Rental Complaint,10/11/2018 01:31:43 PM,10/11/2018 06:18:21 PM,Email,,,,False,,False,,,,,,,
181036,405264,Closed,Permits,Short Term Rental Permit,Short Term Rental Permit,07/01/2020 06:04:09 PM,07/01/2020 07:21:17 PM,Phone,,,,False,,False,3826 Brighton Rd,NASHVILLE,24.0,37205.0,36.12705,-86.83329,"(36.12705, -86.83329)"
181138,109887,Closed,Property Violations,Short Term Rental Complaint,Short Term Rental Complaint,10/17/2018 03:12:34 AM,10/17/2018 04:48:56 PM,hubNashville Community,,Resident,,False,,False,16068,,,,,,
181144,110555,Closed,Property Violations,Short Term Rental Complaint,Short Term Rental Complaint,10/18/2018 08:50:50 PM,02/12/2019 08:08:10 AM,Phone,,,,False,,False,4184 Blueberry Hill Rd,NASHVILLE,1.0,37218.0,36.26078,-86.90562,"(36.26078, -86.90562)"
181180,114217,Closed,Property Violations,Short Term Rental Complaint,Short Term Rental Complaint,11/04/2018 02:31:37 AM,11/05/2018 02:50:15 PM,hubNashville Community,,Resident,,False,,False,831 Goff St,Nashville,,37208.0,,,
181277,298859,Closed,Permits,Short Term Rental Permit,Short Term Rental Permit,01/27/2020 09:44:35 PM,01/30/2020 01:55:22 PM,Phone,,,,False,,False,926 Kirkwood Ave,NASHVILLE,17.0,37204.0,36.120249,-86.7856011,"(36.120249, -86.7856011)"
181372,303098,Closed,Permits,Short Term Rental Permit,Short Term Rental Permit,02/04/2020 11:11:01 PM,02/05/2020 04:14:41 PM,hubNashville Community,,,,False,,False,1413D Monetta Ave,NASHVILLE,7.0,37216.0,36.20030766162275,-86.73153219325407,"(36.20030766162275, -86.73153219325407)"
181674,240521,Closed,Property Violations,Short Term Rental Complaint,Short Term Rental Complaint,08/30/2019 07:33:28 PM,09/03/2019 03:44:51 PM,hubNashville Community,,,,False,,False,124 30th Ave N,NASHVILLE,21.0,37203.0,36.145199700000006,-86.8150321,"(36.1451997, -86.8150321)"
181731,407754,Closed,Property Violations,Short Term Rental Complaint,Short Term Rental Complaint,07/05/2020 01:57:15 AM,07/08/2020 12:38:03 PM,hubNashville Community,,,,False,,False,2021 Beech Ave,NASHVILLE,17.0,37204.0,36.132166399999996,-86.78088919999998,"(36.1321664, -86.78088919999999)"
181837,407702,In Progress,Property Violations,Short Term Rental Complaint,Short Term Rental Complaint,07/04/2020 10:04:58 PM,,hubNashville Community,,,,False,,False,321 Pineway Dr,NASHVILLE,13.0,37217.0,36.114078000000006,-86.697999,"(36.114078, -86.697999)"
181861,407872,In Progress,Property Violations,Short Term Rental Complaint,Short Term Rental Complaint,07/05/2020 03:19:56 PM,,hubNashville Community,,,,False,,False,80 Peachtree St,NASHVILLE,16.0,37210.0,36.119969611588544,-86.73808675,"(36.11996961158855, -86.73808675)"
182034,409838,Closed,Property Violations,Short Term Rental Complaint,Short Term Rental Complaint,07/07/2020 03:51:21 PM,07/21/2020 07:03:37 AM,Mobile App,,Resident,,False,,False,563 Moore Ave,NASHVILLE,17.0,37203.0,36.13729300000001,-86.769364,"(36.13729300000001, -86.769364)"
182108,238666,Closed,Permits,Short Term Rental Permit,Short Term Rental Permit,08/27/2019 08:33:17 PM,08/28/2019 01:58:43 PM,hubNashville Community,,,,False,,False,800 Musket Trail,NASHVILLE,29.0,37217.0,36.08558616157401,-86.63811719325408,"(36.08558616157401, -86.63811719325406)"
182423,58080,Closed,Permits,Short Term Rental Permit,Short Term Rental Permit,04/03/2018 11:23:02 PM,07/13/2018 08:35:45 PM,hubNashville Community,,Resident,,False,,False,2715 Acklen,NASHVILLE,18.0,37212.0,36.136064218941705,-86.81092152271134,"(36.1360642189417, -86.81092152271133)"
182920,248513,Closed,Permits,Short Term Rental Permit,Short Term Rental Permit,09/18/2019 05:59:13 PM,10/02/2019 05:49:22 PM,hubNashville Community,,,,False,,False,2506 Solon Dr,NASHVILLE,7.0,37206.0,36.18922620000001,-86.71414729999998,"(36.1892262, -86.71414729999998)"
182924,248292,Closed,Property Violations,Short Term Rental Complaint,Short Term Rental Complaint,09/18/2019 01:48:51 PM,05/30/2020 07:03:09 AM,hubNashville Community,,,,False,,False,811 Fatherland St,NASHVILLE,6.0,37206.0,36.17271710000001,-86.75666860000003,"(36.17271710000001, -86.75666860000001)"
183224,362767,Closed,Property Violations,Short Term Rental Complaint,Short Term Rental Complaint,05/08/2020 04:30:03 PM,06/30/2020 07:15:47 AM,hubNashville Community,,,,False,,False,1412 Villa Pl,NASHVILLE,17.0,37212.0,36.1396778,-86.79231300000001,"(36.1396778, -86.792313)"
183340,418652,In Progress,Property Violations,Short Term Rental Complaint,Short Term Rental Complaint,07/16/2020 08:52:17 PM,,hubNashville Community,,,,False,,False,4014 E Fairview Dr,NASHVILLE,1.0,37218.0,36.21253476162797,-86.84728419325408,"(36.21253476162797, -86.8472841932541)"
183359,417623,In Progress,Property Violations,Short Term Rental Complaint,Short Term Rental Complaint,07/16/2020 12:05:18 AM,,hubNashville Community,,,,False,407702.0,False,321 Pineway Dr,NASHVILLE,13.0,37217.0,36.114078000000006,-86.697999,"(36.114078, -86.697999)"
183432,375574,Closed,Property Violations,Short Term Rental Complaint,Short Term Rental Complaint,05/24/2020 03:12:56 PM,05/27/2020 03:10:54 PM,hubNashville Community,,,,False,,False,808 Riverside Dr,NASHVILLE,6.0,37206.0,36.17990011161406,-86.72621390674591,"(36.17990011161406, -86.72621390674591)"
183466,359882,Closed,Permits,Short Term Rental Permit,Short Term Rental Permit,05/05/2020 08:41:49 PM,05/07/2020 11:42:10 AM,hubNashville Community,,,,False,,False,1111 Baptist World Center Dr,NASHVILLE,2.0,37207.0,36.19413,-86.77834,"(36.19413, -86.77834)"
183559,364412,Closed,Permits,Short Term Rental Permit,Short Term Rental Permit,05/11/2020 06:48:04 PM,05/11/2020 06:51:20 PM,hubNashville Community,,,,False,,False,622 Fatherland St,NASHVILLE,6.0,37206.0,36.170883482211906,-86.75943729546644,"(36.170883482211906, -86.75943729546644)"
183806,369790,Closed,Property Violations,Short Term Rental Complaint,Short Term Rental Complaint,05/16/2020 04:47:44 AM,05/18/2020 07:57:35 PM,Mobile App,,,,False,,False,1006 11th Ave N,NASHVILLE,19.0,37208.0,36.1702999,-86.79578529999998,"(36.1702999, -86.79578529999999)"
183819,84232,Closed,Permits,Short Term Rental Permit,Short Term Rental Permit,07/19/2018 04:34:57 PM,07/19/2018 06:23:55 PM,Phone,,Resident,,False,,False,,,,,,,
183963,374685,Closed,Property Violations,Short Term Rental Complaint,Short Term Rental Complaint,05/22/2020 02:33:13 PM,05/28/2020 07:19:56 AM,hubNashville Community,,,,False,,False,1705B 17th Ave N,NASHVILLE,21.0,37208.0,36.17680299999999,-86.8089483,"(36.17680299999999, -86.8089483)"
184102,252378,Closed,Permits,Short Term Rental Permit,Short Term Rental Permit,09/27/2019 05:22:40 AM,12/02/2019 09:39:04 PM,hubNashville Community,,,,False,,False,215 6th Ave N,NASHVILLE,19.0,37219.0,36.163000000000004,-86.78199999999998,"(36.163, -86.78199999999998)"
184106,253295,Closed,Property Violations,Short Term Rental Complaint,Short Term Rental Complaint,09/30/2019 04:23:34 PM,11/22/2019 08:08:18 AM,hubNashville Community,,,,False,,False,4744 Apollo Dr,ANTIOCH,28.0,37013.0,36.07039999999999,-86.66687320000001,"(36.07039999999999, -86.6668732)"
184396,255217,Closed,Property Violations,Short Term Rental Complaint,Short Term Rental Complaint,10/03/2019 11:19:46 PM,11/28/2019 08:11:57 AM,hubNashville Community,,,,False,,False,614A Shelby Ave,NASHVILLE,6.0,37206.0,36.16850720000001,-86.75893739999998,"(36.1685072, -86.75893739999998)"
184408,253790,Closed,Property Violations,Short Term Rental Complaint,Short Term Rental Complaint,10/01/2019 03:36:46 PM,11/28/2019 08:10:45 AM,hubNashville Community,,,,False,,False,1001 4th Ave N,NASHVILLE,19.0,37219.0,36.1737437,-86.78632729999998,"(36.1737437, -86.78632729999998)"
184483,259154,Closed,Property Violations,Short Term Rental Complaint,Short Term Rental Complaint,10/15/2019 11:56:52 AM,02/26/2020 08:04:14 AM,hubNashville Community,,,,False,,False,1308 Haysboro Ave,NASHVILLE,7.0,37216.0,36.2310273,-86.71702099999997,"(36.2310273, -86.71702099999999)"
184494,254881,Closed,Permits,Short Term Rental Permit,Short Term Rental Permit,10/03/2019 04:25:18 PM,01/16/2020 01:53:30 PM,hubNashville Community,,,,False,,False,808 45th Ave N,NASHVILLE,20.0,37209.0,36.157582299999994,-86.84091669999998,"(36.1575823, -86.84091669999998)"
184523,262552,Closed,Property Violations,Short Term Rental Complaint,Short Term Rental Complaint,10/22/2019 03:48:47 PM,11/28/2019 08:04:00 AM,Phone,,,,False,,False,3908 Moss Rose Dr,Nashville,,37216.0,36.2094652,-86.70220379999999,"(36.2094652, -86.7022038)"
184586,262578,Closed,Permits,Short Term Rental Permit,Short Term Rental Permit,10/22/2019 04:17:21 PM,10/23/2019 07:00:11 PM,Phone,,,,False,,False,Fleet Dr,HERMITAGE,14.0,37076.0,36.1713375,-86.6171038,"(36.1713375, -86.6171038)"
184618,273679,Assigned,Permits,Short Term Rental Permit,Short Term Rental Permit,11/20/2019 03:22:58 PM,,hubNashville Community,,,,False,,False,1004 Jackson St,NASHVILLE,19.0,37208.0,36.1706723,-86.79420370000004,"(36.1706723, -86.79420370000003)"
184659,267262,Closed,Property Violations,Short Term Rental Complaint,Short Term Rental Complaint,11/03/2019 08:48:58 PM,12/13/2019 10:28:20 PM,hubNashville Community,,,,False,,False,956 9th Ave S,NASHVILLE,17.0,37203.0,36.1453732,-86.7801839,"(36.1453732, -86.7801839)"
184737,313974,Closed,Property Violations,Short Term Rental Complaint,Short Term Rental Complaint,02/26/2020 05:29:15 PM,02/28/2020 08:12:26 AM,hubNashville Community,,,,False,,False,2237 Kline Ave,NASHVILLE,17.0,37211.0,36.1231896,-86.7541983,"(36.1231896, -86.7541983)"
184910,271150,Closed,Property Violations,Short Term Rental Complaint,Short Term Rental Complaint,11/13/2019 07:32:35 PM,07/25/2020 07:11:50 AM,hubNashville Community,,,,False,,False,702 S 16th St,NASHVILLE,6.0,37206.0,36.167738299999996,-86.7435036,"(36.1677383, -86.7435036)"
185204,419514,Closed,Permits,Short Term Rental Permit,Short Term Rental Permit,07/17/2020 06:26:20 PM,07/20/2020 08:41:26 PM,hubNashville Community,,,,False,,False,700 2nd Ave S,NASHVILLE,19.0,37210.0,36.1540588,-86.769025,"(36.1540588, -86.769025)"
185422,74397,Closed,Property Violations,Short Term Rental Complaint,Short Term Rental Complaint,06/11/2018 09:22:44 PM,06/14/2018 05:52:41 PM,hubNashville Community,,Resident,,False,,False,1065 2nd Ave S,NASHVILLE,17.0,37210.0,36.14779779074394,-86.76627811831293,"(36.147797790743944, -86.76627811831293)"
185453,273029,Closed,Property Violations,Short Term Rental Complaint,Short Term Rental Complaint,11/19/2019 05:46:36 AM,07/31/2020 07:13:40 AM,Mobile App,,,,False,260335.0,False,1300 Brick Church Pike,NASHVILLE,2.0,37207.0,36.19830709486755,-86.77723953500391,"(36.198307094867545, -86.7772395350039)"
185476,278875,Assigned,Permits,Short Term Rental Permit,Short Term Rental Permit,12/05/2019 06:55:21 PM,,hubNashville Community,,,,False,,False,1700 State St,NASHVILLE,21.0,37203.0,36.1567501,-86.79747379999998,"(36.1567501, -86.79747379999998)"
185637,375583,Closed,Property Violations,Short Term Rental Complaint,Short Term Rental Complaint,05/24/2020 04:08:53 PM,05/27/2020 06:38:14 PM,hubNashville Community,,,,False,,False,1441 Lebanon Pike,NASHVILLE,19.0,37210.0,36.150659499999996,-86.7232468,"(36.1506595, -86.7232468)"
185648,377782,Closed,Permits,Short Term Rental Permit,Short Term Rental Permit,05/27/2020 07:18:07 PM,05/27/2020 07:22:18 PM,Phone,,,,False,,False,524 Snyder Ave,NASHVILLE,20.0,37209.0,36.1539244,-86.8602482,"(36.1539244, -86.8602482)"
185687,377760,Closed,Property Violations,Short Term Rental Complaint,Short Term Rental Complaint,05/27/2020 06:59:28 PM,05/29/2020 07:20:50 AM,hubNashville Community,,,,False,,False,1731 16th Ave N,NASHVILLE,21.0,37208.0,36.1785402359844,-86.80879210085678,"(36.1785402359844, -86.80879210085678)"
185689,377755,Closed,Property Violations,Short Term Rental Complaint,Short Term Rental Complaint,05/27/2020 06:56:44 PM,05/29/2020 07:20:35 AM,hubNashville Community,,,,False,,False,1716 17th Ave N,NASHVILLE,21.0,37208.0,36.177694581525294,-86.80911234199604,"(36.177694581525294, -86.80911234199603)"
185736,375736,Closed,Property Violations,Short Term Rental Complaint,Short Term Rental Complaint,05/25/2020 04:49:20 PM,06/18/2020 07:37:58 AM,hubNashville Community,,,,False,,False,323 Cleveland St,NASHVILLE,5.0,37207.0,36.18704581161711,-86.76592829999996,"(36.18704581161711, -86.76592829999997)"
185750,377767,Closed,Property Violations,Short Term Rental Complaint,Short Term Rental Complaint,05/27/2020 07:03:41 PM,05/29/2020 07:20:01 AM,hubNashville Community,,,,False,,False,1739 16th Ave N,NASHVILLE,21.0,37208.0,36.17884499874509,-86.80884730317993,"(36.178844998745085, -86.80884730317993)"
186703,423729,Closed,Property Violations,Short Term Rental Complaint,Short Term Rental Complaint,07/23/2020 03:08:25 AM,09/02/2020 07:05:25 AM,hubNashville Community,,,,False,424119.0,False,1706 17th Ave N,NASHVILLE,21.0,37208.0,36.177257,-86.80842,"(36.177257, -86.80842)"
186753,439827,Closed,Property Violations,Short Term Rental Complaint,Short Term Rental Complaint,08/07/2020 12:09:40 PM,08/15/2020 07:07:35 AM,hubNashville Community,,,,False,433795.0,False,1005 9th Ave S,NASHVILLE,17.0,37203.0,36.14494469713494,-86.78084366216223,"(36.14494469713494, -86.78084366216224)"
187010,316552,Closed,Property Violations,Short Term Rental Complaint,Short Term Rental Complaint,03/02/2020 06:26:47 PM,03/20/2020 08:09:55 AM,hubNashville Community,,,,False,,False,1035 Chicamauga Ave,NASHVILLE,5.0,37206.0,36.185147,-86.749656,"(36.185147, -86.749656)"
187083,74308,Closed,Property Violations,Short Term Rental Complaint,Short Term Rental Complaint,06/11/2018 06:32:40 PM,06/13/2018 02:17:09 PM,hubNashville Community,,,,False,,False,542B Hamilton Ave,NASHVILLE,17.0,37203.0,36.138772458418735,-86.7679715687172,"(36.138772458418735, -86.7679715687172)"
187089,77430,Closed,Property Violations,Short Term Rental Complaint,Short Term Rental Complaint,06/22/2018 06:07:09 PM,10/05/2018 02:40:31 PM,hubNashville Community,,,,False,,False,908 15th Ave S,NASHVILLE,19.0,37212.0,36.14756819299309,-86.78989299845347,"(36.14756819299309, -86.78989299845347)"
187157,317713,Assigned,Permits,Short Term Rental Permit,Short Term Rental Permit,03/04/2020 04:47:58 PM,,Phone,,,,False,,False,707 26th Ave N,NASHVILLE,21.0,37208.0,36.1589849,-86.81520390000001,"(36.1589849, -86.8152039)"
187228,325853,Closed,Property Violations,Short Term Rental Complaint,Short Term Rental Complaint,03/13/2020 05:53:52 AM,03/17/2020 08:27:21 PM,hubNashville Community,,,,False,,False,523 Weakley Ave,NASHVILLE,5.0,37207.0,36.19742986162154,-86.78212954999998,"(36.19742986162155, -86.78212954999998)"
187232,325725,Closed,Property Violations,Short Term Rental Complaint,Short Term Rental Complaint,03/12/2020 09:05:40 PM,04/16/2020 07:10:35 AM,hubNashville Community,,,,False,,False,2634 Pennington Ave,NASHVILLE,7.0,37216.0,36.19773099999999,-86.730909,"(36.19773099999999, -86.730909)"
187254,326557,Closed,Property Violations,Short Term Rental Complaint,Short Term Rental Complaint,03/14/2020 03:57:16 PM,04/16/2020 07:10:54 AM,hubNashville Community,,,,False,,False,1213a Tremont Ave,NASHVILLE,19.0,37212.0,36.143758,-86.789225,"(36.143758, -86.789225)"
187256,326040,Closed,Permits,Short Term Rental Permit,Short Term Rental Permit,03/13/2020 03:39:28 PM,03/16/2020 12:47:11 PM,hubNashville Community,,,,False,,False,6217 Henry Ford Dr,NASHVILLE,20.0,37209.0,36.1515675,-86.87838559999999,"(36.1515675, -86.8783856)"
187416,379732,Closed,Property Violations,Short Term Rental Complaint,Short Term Rental Complaint,05/29/2020 04:57:48 PM,06/06/2020 07:19:36 AM,hubNashville Community,,,,False,,False,1625 16th Ave N,NASHVILLE,21.0,37208.0,36.176751823496616,-86.80698106964338,"(36.176751823496616, -86.80698106964338)"
187499,84285,Closed,Permits,Short Term Rental Permit,Short Term Rental Permit,07/19/2018 06:27:11 PM,07/20/2018 01:17:05 PM,Phone,,,,False,,False,,,,,,,
187513,86455,Closed,Permits,Short Term Rental Permit,Short Term Rental Permit,07/30/2018 12:49:16 PM,07/31/2018 08:02:27 PM,Phone,,,,False,,False,,,,,,,
187825,130031,Closed,Property Violations,Short Term Rental Complaint,Short Term Rental Complaint,01/10/2019 04:53:27 PM,01/12/2019 08:01:11 AM,hubNashville Community,,,,False,,False,1311 Woodland St,NASHVILLE,6.0,37206.0,36.17734300000001,-86.7460964,"(36.17734300000001, -86.7460964)"
191835,241177,In Progress,Property Violations,Short Term Rental Complaint,Short Term Rental Complaint,09/03/2019 04:42:31 PM,,hubNashville Community,,,,False,114205.0,False,903 B Virginia Ave,NASHVILLE,8.0,37216.0,36.222981442479075,-86.73224291708384,"(36.22298144247907, -86.73224291708385)"
192005,450375,In Progress,Property Violations,Short Term Rental Complaint,Short Term Rental Complaint,08/23/2020 08:57:50 AM,,hubNashville Community,,,,False,,False,419 Park Cir,NASHVILLE,24.0,37205.0,36.1415189,-86.82427489999998,"(36.1415189, -86.82427489999999)"
192116,475726,Closed,Permits,Short Term Rental Permit,Short Term Rental Permit,10/05/2020 04:52:23 PM,10/05/2020 05:32:26 PM,hubNashville Community,,,,False,,False,440 Scotts Creek Trail,HERMITAGE,12.0,37076.0,36.201686411623356,-86.59358939999998,"(36.201686411623356, -86.59358939999998)"
192849,127478,In Progress,Property Violations,Short Term Rental Complaint,Short Term Rental Complaint,01/03/2019 12:41:23 AM,,hubNashville Community,,,,False,,False,4505 Georgia Ave,NASHVILLE,20.0,37209.0,36.15548485236595,-86.84166351399982,"(36.15548485236595, -86.84166351399983)"
193045,73047,Closed,Permits,Short Term Rental Permit,Short Term Rental Permit,06/06/2018 07:53:33 PM,06/07/2018 08:33:50 PM,Phone,,Resident,,False,,False,,,,,,,
193182,431927,Closed,Property Violations,Short Term Rental Complaint,Short Term Rental Complaint,07/30/2020 01:41:15 AM,08/18/2020 07:08:23 AM,Mobile App,,,,False,,False,624 Neill Ave,NASHVILLE,5.0,37206.0,36.1820315,-86.7600628,"(36.1820315, -86.7600628)"
193386,451977,Closed,Property Violations,Short Term Rental Complaint,Short Term Rental Complaint,08/25/2020 06:37:19 PM,08/25/2020 06:39:55 PM,hubNashville Community,,,,False,,False,4908 Delaware Ave,NASHVILLE,20.0,37209.0,36.1545619,-86.84695440000002,"(36.1545619, -86.8469544)"
193686,456968,Closed,Permits,Short Term Rental Permit,Short Term Rental Permit,09/02/2020 05:08:47 PM,09/04/2020 11:38:33 AM,hubNashville Community,,,,False,,False,1101 S Douglas Ave,NASHVILLE,17.0,37204.0,36.130386,-86.78757999999998,"(36.130386, -86.78757999999999)"
194373,441499,Closed,Permits,Short Term Rental Permit,Short Term Rental Permit,08/10/2020 03:32:28 PM,08/10/2020 05:32:25 PM,hubNashville Community,,,,False,,False,210 Anne Dallas Dudley Blvd,NASHVILLE,19.0,37219.0,36.163000000000004,-86.78200000000001,"(36.163, -86.782)"
194712,312243,Closed,Property Violations,Short Term Rental Complaint,Short Term Rental Complaint,02/24/2020 01:23:35 PM,08/20/2020 07:20:13 AM,hubNashville Community,,,,False,,False,1801 Blair Blvd,NASHVILLE,18.0,37212.0,36.1295652,-86.79784659999999,"(36.1295652, -86.7978466)"
195465,421688,Closed,Property Violations,Short Term Rental Complaint,Short Term Rental Complaint,07/21/2020 12:27:53 AM,08/18/2020 07:06:10 AM,hubNashville Community,,,,False,,False,1001 9th Ave S,NASHVILLE,17.0,37203.0,36.14501381874019,-86.78084021134977,"(36.14501381874019, -86.78084021134978)"
195557,419692,In Progress,Property Violations,Short Term Rental Complaint,Short Term Rental Complaint,07/17/2020 08:16:31 PM,,hubNashville Community,,,,False,,False,3353 Percy Priest Dr,NASHVILLE,13.0,37214.0,36.15266580000001,-86.6319968,"(36.15266580000001, -86.6319968)"
195777,423596,Closed,Property Violations,Short Term Rental Complaint,Short Term Rental Complaint,07/22/2020 10:09:20 PM,08/18/2020 07:06:33 AM,hubNashville Community,,,,False,,False,1922 14th Ave N,NASHVILLE,21.0,37208.0,36.182927899999996,-86.808504,"(36.1829279, -86.808504)"
195834,455504,In Progress,Property Violations,Short Term Rental Complaint,Short Term Rental Complaint,08/31/2020 05:13:41 PM,,hubNashville Community,,,,False,455497.0,False,3813 Cantarutti Rd,JOELTON,1.0,37080.0,36.283170500000004,-86.87895639999998,"(36.2831705, -86.87895639999999)"
196305,68822,Closed,Property Violations,Short Term Rental Complaint,Short Term Rental Complaint,05/19/2018 01:38:54 AM,09/28/2018 07:00:16 AM,hubNashville Community,,Resident,,False,,False,1603 villa,,,37212.0,,,
197977,433795,Closed,Property Violations,Short Term Rental Complaint,Short Term Rental Complaint,07/31/2020 12:01:52 PM,08/15/2020 07:07:35 AM,hubNashville Community,,,,False,,False,1005 9th Ave S,NASHVILLE,17.0,37203.0,36.14492855250885,-86.7808627460327,"(36.14492855250885, -86.7808627460327)"
198158,437269,Closed,Property Violations,Short Term Rental Complaint,Short Term Rental Complaint,08/04/2020 04:42:48 PM,08/04/2020 08:16:37 PM,hubNashville Community,,,,False,,False,1406 4th Ave N,NASHVILLE,19.0,37208.0,36.1792589,-86.78874619999998,"(36.1792589, -86.78874619999999)"
199106,435028,Closed,Property Violations,Short Term Rental Complaint,Short Term Rental Complaint,08/01/2020 06:28:41 AM,08/03/2020 06:15:40 PM,Mobile App,,,,False,,False,3203 Long Blvd,NASHVILLE,21.0,37203.0,36.1441541,-86.82013859999998,"(36.1441541, -86.82013859999999)"
200179,260335,Closed,Property Violations,Short Term Rental Complaint,Short Term Rental Complaint,10/16/2019 09:57:24 PM,07/31/2020 07:13:40 AM,hubNashville Community,,,,False,,False,1300 Brick Church Pike,NASHVILLE,2.0,37207.0,36.198257314845435,-86.7771874036567,"(36.19825731484544, -86.77718740365668)"
200830,148011,Closed,Property Violations,Short Term Rental Complaint,Short Term Rental Complaint,02/27/2019 08:01:56 PM,08/05/2020 07:15:42 AM,hubNashville Community,,,,False,,False,1716A 6th Ave N,,,37208.0,36.182503999999994,-86.79395449999998,"(36.182504, -86.79395449999998)"
200948,476072,In Progress,Property Violations,Short Term Rental Complaint,Short Term Rental Complaint,10/05/2020 10:13:24 PM,,hubNashville Community,,,,False,134971.0,False,1800 Porter Rd,NASHVILLE,7.0,37206.0,36.19613601162096,-86.720881,"(36.19613601162096, -86.720881)"
201303,120956,Closed,Property Violations,Short Term Rental Complaint,Short Term Rental Complaint,12/04/2018 04:14:01 PM,08/25/2020 07:39:24 AM,hubNashville Community,,,,False,,False,500 N 17th St,NASHVILLE,6.0,37206.0,36.181239500000004,-86.73900500000002,"(36.1812395, -86.73900500000002)"
202643,472974,Closed,Permits,Short Term Rental Permit,Short Term Rental Permit,09/29/2020 10:04:15 PM,09/30/2020 12:34:23 PM,hubNashville Community,,,,False,,False,817 3rd Ave N,NASHVILLE,19.0,37201.0,36.171385,-86.783148,"(36.171385, -86.783148)"
203399,59175,Closed,Permits,Short Term Rental Permit,Short Term Rental Permit,04/09/2018 04:07:25 PM,04/11/2018 07:45:49 PM,Phone,,,,False,,False,,,,,,,
204223,461151,Closed,Permits,Short Term Rental Permit,Short Term Rental Permit,09/09/2020 10:02:43 PM,09/10/2020 11:27:35 AM,Phone,,,,False,,False,112 Lucile St,NASHVILLE,5.0,37207.0,36.196174299999996,-86.77053790000001,"(36.1961743, -86.7705379)"
204267,490840,Closed,Permits,Short Term Rental Permit,Short Term Rental Permit,10/29/2020 12:23:09 PM,10/29/2020 01:35:35 PM,hubNashville Community,,,,False,,False,525 31st Ave N,NASHVILLE,21.0,37209.0,36.155981,-86.82197389999997,"(36.155981, -86.82197389999999)"
204318,194564,In Progress,Property Violations,Short Term Rental Complaint,Short Term Rental Complaint,06/05/2019 02:13:56 AM,,hubNashville Community,,,,False,134974.0,False,1431 Lischey Ave,NASHVILLE,5.0,37207.0,36.19855130000001,-86.76152530000002,"(36.19855130000001, -86.76152530000002)"
204520,150509,In Progress,Property Violations,Short Term Rental Complaint,Short Term Rental Complaint,03/06/2019 02:55:05 AM,,hubNashville Community,,,,False,,False,2130 Whitney Ave,,,37210.0,36.12721,-86.75116390000001,"(36.12721, -86.7511639)"
205080,486988,Closed,Property Violations,Short Term Rental Complaint,Short Term Rental Complaint,10/23/2020 02:26:13 PM,10/26/2020 12:57:06 PM,hubNashville Community,,,,False,,False,2912 Tuggle Ave,NASHVILLE,16.0,37211.0,36.108545899999996,-86.733192,"(36.1085459, -86.733192)"
205560,446143,In Progress,Property Violations,Short Term Rental Complaint,Short Term Rental Complaint,08/17/2020 01:40:03 AM,,Mobile App,,,,False,255792.0,False,716 S 12th St,NASHVILLE,6.0,37206.0,36.1664463,-86.75017209999999,"(36.1664463, -86.7501721)"
205875,445944,Closed,Property Violations,Short Term Rental Complaint,,08/16/2020 02:43:22 PM,10/14/2020 07:06:18 AM,hubNashville Community,,,,False,,False,1504 18th Ave S,NASHVILLE,17.0,37212.0,36.13928,-86.79603,"(36.13928, -86.79603)"
206497,487006,Closed,Property Violations,Short Term Rental Complaint,Short Term Rental Complaint,10/23/2020 02:38:01 PM,10/27/2020 08:16:14 AM,hubNashville Community,,,,False,487210.0,False,2912 Tuggle Ave,NASHVILLE,16.0,37211.0,36.108545899999996,-86.733192,"(36.1085459, -86.733192)"
208363,468482,Closed,Property Violations,Short Term Rental Complaint,Short Term Rental Complaint,09/22/2020 02:34:20 AM,09/26/2020 07:37:34 AM,hubNashville Community,,,,False,,False,1019 11th Ave N,NASHVILLE,19.0,37208.0,36.170815399999995,-86.79656829999998,"(36.1708154, -86.79656829999999)"
209143,468472,Closed,Property Violations,Short Term Rental Complaint,Short Term Rental Complaint,09/22/2020 01:45:48 AM,10/01/2020 07:37:10 AM,Mobile App,,,,False,,False,127 Fern Ave,NASHVILLE,2.0,37207.0,36.19714260000001,-86.7812046,"(36.19714260000001, -86.7812046)"
209365,486972,Closed,Property Violations,Short Term Rental Complaint,Short Term Rental Complaint,10/23/2020 02:17:36 PM,10/26/2020 12:57:53 PM,hubNashville Community,,,,False,,False,2912 Tuggle Ave,NASHVILLE,16.0,37211.0,36.108545899999996,-86.733192,"(36.1085459, -86.733192)"
209503,487210,Closed,Property Violations,Short Term Rental Complaint,Short Term Rental Complaint,10/23/2020 04:41:33 PM,10/27/2020 08:16:14 AM,hubNashville Community,,,,False,,False,2912 Tuggle Ave,NASHVILLE,16.0,37211.0,36.108545899999996,-86.733192,"(36.1085459, -86.733192)"
209748,459107,Closed,Property Violations,Short Term Rental Complaint,Short Term Rental Complaint,09/06/2020 06:55:10 AM,10/20/2020 07:09:03 AM,hubNashville Community,,,,False,,False,939 Southside Pl,NASHVILLE,17.0,37203.0,36.1459408,-86.78143670000001,"(36.1459408, -86.7814367)"
209749,487021,Closed,Property Violations,Short Term Rental Complaint,Short Term Rental Complaint,10/23/2020 02:44:49 PM,10/27/2020 08:16:14 AM,hubNashville Community,,,,False,487210.0,False,2912 Tuggle Ave,NASHVILLE,16.0,37211.0,36.108545899999996,-86.733192,"(36.1085459, -86.733192)"
210310,256771,Closed,Permits,Short Term Rental Permit,Short Term Rental Permit,10/08/2019 08:29:26 PM,01/16/2020 02:04:39 PM,Phone,,,,False,,False,1510 Andy St,NASHVILLE,7.0,0.0,36.2024045,-86.7295297,"(36.2024045, -86.7295297)"
210324,261499,Assigned,Property Violations,Short Term Rental Complaint,Short Term Rental Complaint,10/18/2019 07:57:24 PM,,Phone,,,,False,,False,600 S 12th St,NASHVILLE,6.0,37206.0,36.16923,-86.74995,"(36.16923, -86.74995)"
212433,459193,Closed,Permits,Short Term Rental Permit,Short Term Rental Permit,09/06/2020 07:08:11 PM,09/08/2020 07:39:53 PM,hubNashville Community,,,,False,,False,347 Lanier Dr,MADISON,9.0,37115.0,36.2580692,-86.6977017,"(36.2580692, -86.6977017)"
212469,468485,In Progress,Property Violations,Short Term Rental Complaint,Short Term Rental Complaint,09/22/2020 02:46:45 AM,,hubNashville Community,,,,False,,False,1609 Linden Ave,NASHVILLE,18.0,37212.0,36.1278311,-86.79354010000002,"(36.1278311, -86.79354010000002)"
212501,459194,Closed,Permits,Short Term Rental Permit,Short Term Rental Permit,09/06/2020 07:10:59 PM,09/08/2020 07:40:44 PM,hubNashville Community,,,,False,,False,347 Lanier Dr,MADISON,9.0,37115.0,36.2580692,-86.6977017,"(36.2580692, -86.6977017)"
212737,198107,In Progress,Property Violations,Short Term Rental Complaint,Short Term Rental Complaint,06/11/2019 04:45:48 PM,,hubNashville Community,,,,False,,False,227 Treutland Ave,NASHVILLE,5.0,37207.0,36.180560761614366,-86.76950065000004,"(36.180560761614366, -86.76950065000005)"
212738,198105,In Progress,Property Violations,Short Term Rental Complaint,Short Term Rental Complaint,06/11/2019 04:44:34 PM,,hubNashville Community,,,,False,198107.0,False,227 Treutland Ave,NASHVILLE,5.0,37207.0,36.180437,-86.76951500000001,"(36.180437, -86.76951500000001)"
212755,214291,In Progress,Property Violations,Short Term Rental Complaint,Short Term Rental Complaint,07/12/2019 08:18:19 PM,,hubNashville Community,,,,False,198107.0,False,227 Treutland Ave,NASHVILLE,5.0,37207.0,36.180437,-86.76951500000001,"(36.180437, -86.76951500000001)"
213332,45240,Closed,Permits,Short Term Rental Permit,Short Term Rental Permit,02/09/2018 06:51:26 PM,02/14/2018 01:33:28 PM,Phone,,Resident,,False,,False,2009 18th Ave S,,,,,,
213345,498030,In Progress,Property Violations,Short Term Rental Complaint,,11/09/2020 03:09:43 AM,,hubNashville Community,,,,False,,False,1318B Stainback Ave,NASHVILLE,5.0,37207.0,36.19519151162057,-86.76481199999998,"(36.19519151162057, -86.76481199999998)"
213436,474009,Closed,Property Violations,Short Term Rental Complaint,Short Term Rental Complaint,10/01/2020 04:11:16 PM,10/01/2020 08:35:51 PM,hubNashville Community,,,,False,,False,210 Anne Dallas Dudley Blvd,NASHVILLE,19.0,37219.0,36.163000000000004,-86.78200000000001,"(36.163, -86.782)"
213611,44867,Closed,Permits,Short Term Rental Permit,Short Term Rental Permit,02/08/2018 03:51:20 PM,02/13/2018 04:09:55 PM,Phone,,Resident,,False,,False,3107 Acklen Ave,,,,,,
213812,465664,Closed,Permits,Short Term Rental Permit,Short Term Rental Permit,09/17/2020 02:46:59 AM,09/17/2020 03:39:32 PM,hubNashville Community,,,,False,,False,2214 24th Ave N,NASHVILLE,2.0,37208.0,36.1891182,-86.8151204,"(36.1891182, -86.8151204)"
214754,471335,Closed,Property Violations,Short Term Rental Complaint,Short Term Rental Complaint,09/26/2020 11:07:54 PM,09/28/2020 02:44:59 PM,Mobile App,,,,False,,False,207 Myrtle St,NASHVILLE,5.0,37206.0,36.179430100000005,-86.7563551,"(36.1794301, -86.7563551)"
215214,471383,Closed,Property Violations,Short Term Rental Complaint,Short Term Rental Complaint,09/27/2020 05:26:00 AM,09/28/2020 02:43:57 PM,hubNashville Community,,,,False,,False,502 Southgate Ave,NASHVILLE,17.0,37203.0,36.13589326159537,-86.76551394999998,"(36.13589326159537, -86.76551394999998)"
216210,487033,Closed,Property Violations,Short Term Rental Complaint,Short Term Rental Complaint,10/23/2020 02:52:05 PM,10/27/2020 08:16:22 AM,hubNashville Community,,,,False,,False,2911 Tuggle Ave,NASHVILLE,16.0,37211.0,36.1087586,-86.73375940000001,"(36.1087586, -86.7337594)"
216252,41049,Closed,Permits,Short Term Rental Permit,Short Term Rental Permit,01/23/2018 02:34:02 AM,01/23/2018 04:23:15 PM,hubNashville Community,,Resident,,False,,False,1416 Norvel,,,,,,
216868,211423,In Progress,Property Violations,Short Term Rental Complaint,Short Term Rental Complaint,07/08/2019 05:48:27 PM,,hubNashville Community,,,,False,,False,2840 Steamboat Dr,NASHVILLE,15.0,37214.0,36.23568119999999,-86.69706610000004,"(36.23568119999999, -86.69706610000003)"
217320,39630,Closed,Permits,Short Term Rental Permit,Short Term Rental Permit,01/17/2018 06:59:59 PM,01/31/2018 12:42:53 PM,Phone,,Resident,,False,,False,5504 BON AIR CIR,,,,,,
217579,474402,Closed,Property Violations,Short Term Rental Complaint,Short Term Rental Complaint,10/02/2020 03:51:38 AM,10/02/2020 08:44:47 PM,hubNashville Community,,,,False,,False,2208 Elliott Ave,NASHVILLE,17.0,37204.0,36.12908566159248,-86.77976819325409,"(36.129085661592484, -86.77976819325409)"
217800,468483,In Progress,Property Violations,Short Term Rental Complaint,Short Term Rental Complaint,09/22/2020 02:38:23 AM,,hubNashville Community,,,,False,,False,1515 Clairmont Pl,NASHVILLE,25.0,37215.0,36.11144099999999,-86.799159,"(36.11144099999999, -86.799159)"
217840,468487,Closed,Property Violations,Short Term Rental Complaint,Short Term Rental Complaint,09/22/2020 02:51:28 AM,09/26/2020 07:38:16 AM,hubNashville Community,,,,False,,False,1720 Northview Ave,NASHVILLE,7.0,37216.0,36.2005672,-86.73544910000003,"(36.2005672, -86.73544910000001)"
217875,468488,Closed,Property Violations,Short Term Rental Complaint,Short Term Rental Complaint,09/22/2020 02:55:42 AM,09/26/2020 07:38:09 AM,hubNashville Community,,,,False,,False,819 Meridian St,NASHVILLE,5.0,37207.0,36.1852654,-86.7680275,"(36.1852654, -86.7680275)"
217955,283060,In Progress,Property Violations,Short Term Rental Complaint,Short Term Rental Complaint,12/18/2019 03:28:33 AM,,hubNashville Community,,,,False,,False,1431 Lischey Ave,NASHVILLE,5.0,37207.0,36.19855130000001,-86.76152530000002,"(36.19855130000001, -86.76152530000002)"
218885,274514,In Progress,Property Violations,Short Term Rental Complaint,Short Term Rental Complaint,11/21/2019 08:38:16 PM,,hubNashville Community,,,,False,,False,903 Mcferrin Ave,NASHVILLE,5.0,37206.0,36.187005240772294,-86.75387662883604,"(36.187005240772294, -86.75387662883605)"
219104,462960,Closed,Permits,Short Term Rental Permit,Short Term Rental Permit,09/12/2020 09:41:31 PM,09/14/2020 03:11:40 PM,hubNashville Community,,,,False,,False,920 N 5th St,NASHVILLE,5.0,37207.0,36.1877026,-86.7630653,"(36.1877026, -86.7630653)"
219374,468734,Closed,Permits,Short Term Rental Permit,Short Term Rental Permit,09/22/2020 03:20:37 PM,09/22/2020 04:17:54 PM,hubNashville Community,,,,False,,False,1715b 6th Ave N,NASHVILLE,19.0,37208.0,36.18243659999999,-86.7946077,"(36.18243659999999, -86.7946077)"
220026,71449,On Hold,Property Violations,Short Term Rental Complaint,Short Term Rental Complaint,05/31/2018 04:33:25 PM,,hubNashville Community,,,,False,,False,125 W End Pl,NASHVILLE,24.0,,36.136390486237104,-86.82314580971224,"(36.1363904862371, -86.82314580971224)"
220145,225169,In Progress,Property Violations,Short Term Rental Complaint,Short Term Rental Complaint,08/04/2019 08:42:27 PM,,hubNashville Community,,,,False,,False,1800 Porter Rd,NASHVILLE,7.0,37206.0,36.19613599999999,-86.72088099999996,"(36.19613599999999, -86.72088099999996)"
220467,186351,In Progress,Property Violations,Short Term Rental Complaint,Short Term Rental Complaint,05/19/2019 08:20:59 PM,,hubNashville Community,,,,False,,False,109 Fern Ave,NASHVILLE,2.0,37207.0,36.19636320000001,-86.7790554,"(36.1963632, -86.7790554)"
220508,217235,In Progress,Property Violations,Short Term Rental Complaint,Short Term Rental Complaint,07/18/2019 11:29:58 PM,,Mobile App,,,,False,186351.0,False,109 Fern Ave,NASHVILLE,2.0,37207.0,36.19636300177883,-86.77905522286892,"(36.19636300177883, -86.77905522286892)"
220574,257004,In Progress,Property Violations,Short Term Rental Complaint,Short Term Rental Complaint,10/09/2019 03:07:35 PM,,hubNashville Community,,,,False,,False,1125 Chester Ave,NASHVILLE,7.0,37206.0,36.19513541533969,-86.74079364573623,"(36.19513541533969, -86.74079364573623)"
220655,271799,Assigned,Property Violations,Short Term Rental Complaint,Short Term Rental Complaint,11/14/2019 09:55:28 PM,,Phone,,Resident,,False,,False,900 Locklayer St,NASHVILLE,19.0,37208.0,36.1711,-86.79133,"(36.1711, -86.79133)"
220772,294471,In Progress,Property Violations,Short Term Rental Complaint,Short Term Rental Complaint,01/16/2020 09:06:01 PM,,hubNashville Community,,,,False,,False,1717 Villa Pl,NASHVILLE,17.0,37212.0,36.13669209999999,-86.79345219999998,"(36.13669209999999, -86.79345219999999)"
221153,33763,Closed,Permits,Short Term Rental Permit,Short Term Rental Permit,12/15/2017 09:21:52 PM,12/19/2017 03:16:03 PM,hubNashville Community,,Resident,,False,,False,4619 Shys Hill Rd,,,,,,
221220,192107,Closed,Property Violations,Short Term Rental Complaint,Short Term Rental Complaint,05/30/2019 07:00:48 PM,10/22/2020 07:11:05 AM,hubNashville Community,,,,False,,False,1313A Little Hamilton Ave,NASHVILLE,17.0,37203.0,36.14020854549654,-86.76525433479395,"(36.14020854549655, -86.76525433479395)"
221339,205208,In Progress,Property Violations,Short Term Rental Complaint,Short Term Rental Complaint,06/25/2019 03:49:59 PM,,hubNashville Community,,,,False,186395.0,False,1202 Katie Ave,NASHVILLE,2.0,37207.0,36.196693700000004,-86.78026240000004,"(36.1966937, -86.78026240000003)"
222078,186395,In Progress,Property Violations,Short Term Rental Complaint,Short Term Rental Complaint,05/19/2019 08:29:21 PM,,hubNashville Community,,,,False,,False,1202 Katie Ave,NASHVILLE,2.0,37207.0,36.196693700000004,-86.78026240000004,"(36.1966937, -86.78026240000003)"
222091,186662,In Progress,Property Violations,Short Term Rental Complaint,Short Term Rental Complaint,05/20/2019 03:23:37 PM,,Phone,,,,False,,False,3116 Laurel Forest Dr,NASHVILLE,14.0,37214.0,36.15216829999999,-86.64789400000002,"(36.15216829999999, -86.64789400000001)"
222165,205151,In Progress,Property Violations,Short Term Rental Complaint,Short Term Rental Complaint,06/25/2019 03:15:41 PM,,hubNashville Community,,,,False,186395.0,False,1202 Katie Ave,NASHVILLE,2.0,37207.0,36.196693700000004,-86.78026240000004,"(36.1966937, -86.78026240000003)"
222209,478987,Closed,Property Violations,Short Term Rental Complaint,Short Term Rental Complaint,10/10/2020 02:48:21 PM,10/13/2020 02:29:17 PM,hubNashville Community,,,,False,,False,,NASHVILLE,19.0,37219.0,36.167851711608954,-86.7831538,"(36.16785171160895, -86.7831538)"
223755,29802,Closed,Permits,Short Term Rental Permit,Short Term Rental Permit,11/26/2017 10:14:49 PM,11/28/2017 01:51:38 PM,hubNashville Community,,Other,,False,,False,,,,,,,
224343,28981,Closed,Permits,Short Term Rental Permit,Short Term Rental Permit,11/20/2017 09:30:33 AM,01/24/2018 04:09:09 PM,hubNashville Community,,,,False,,False,,,,,,,
224608,179783,In Progress,Property Violations,Short Term Rental Complaint,Short Term Rental Complaint,05/06/2019 04:16:46 PM,,hubNashville Community,,,,False,,False,882 Kipling Dr,NASHVILLE,13.0,37217.0,36.1308765,-86.70282270000001,"(36.1308765, -86.70282270000001)"
224903,474403,Closed,Property Violations,Short Term Rental Complaint,Short Term Rental Complaint,10/02/2020 03:54:27 AM,10/02/2020 08:45:11 PM,hubNashville Community,,,,False,,False,2208 Elliott Ave,NASHVILLE,17.0,37204.0,36.12908566159248,-86.77976819325409,"(36.129085661592484, -86.77976819325409)"
226943,197020,In Progress,Property Violations,Short Term Rental Complaint,Short Term Rental Complaint,06/09/2019 05:41:37 PM,,hubNashville Community,,,,False,127478.0,False,4505 Georgia Ave,NASHVILLE,20.0,37209.0,36.1554539,-86.84173790000001,"(36.1554539, -86.8417379)"
227750,472313,Closed,Property Violations,Short Term Rental Complaint,Short Term Rental Complaint,09/29/2020 01:22:22 AM,10/10/2020 07:15:33 AM,hubNashville Community,,,,False,,False,2503A Inga St,NASHVILLE,5.0,37206.0,36.197731435648045,-86.75021097092835,"(36.19773143564805, -86.75021097092834)"
228207,477558,In Progress,Property Violations,Short Term Rental Complaint,Short Term Rental Complaint,10/08/2020 04:37:42 AM,,hubNashville Community,,,,False,,False,816 Shelby Ave,NASHVILLE,6.0,37206.0,36.170115700000004,-86.7546205,"(36.1701157, -86.7546205)"
228267,477560,Closed,Property Violations,Short Term Rental Complaint,Short Term Rental Complaint,10/08/2020 04:43:53 AM,10/08/2020 02:55:14 PM,Mobile App,,,,False,,False,818 Shelby Ave,NASHVILLE,6.0,37206.0,36.17025599999999,-86.754533,"(36.17025599999999, -86.754533)"
229073,487803,In Progress,Property Violations,Short Term Rental Complaint,,10/24/2020 07:30:58 PM,,hubNashville Community,,,,False,,False,1809 Eastside Ave,NASHVILLE,6.0,37206.0,36.168380400000004,-86.73834040000001,"(36.1683804, -86.7383404)"
229867,262770,Assigned,Property Violations,Short Term Rental Permit,Short Term Rental Permit,10/22/2019 08:08:19 PM,,hubNashville Community,,,,False,,False,4325 Ashland City Hwy,NASHVILLE,1.0,37218,36.2075017,-86.85791489999997,"(36.2075017, -86.85791489999997)"
230387,219732,In Progress,Property Violations,Short Term Rental Complaint,Short Term Rental Complaint,07/24/2019 04:01:25 PM,,hubNashville Community,,,,False,,False,605 Fordomatic Dr,NASHVILLE,20.0,37209,36.152973100000004,-86.88492009999999,"(36.1529731, -86.88492009999999)"
230412,476115,In Progress,Property Violations,Short Term Rental Complaint,Short Term Rental Complaint,10/06/2020 01:08:23 AM,,hubNashville Community,,,,False,225169.0,False,1800 Porter Rd,NASHVILLE,7.0,37206,36.19613599999999,-86.72088099999998,"(36.19613599999999, -86.72088099999999)"
230541,225115,In Progress,Property Violations,Short Term Rental Complaint,Short Term Rental Complaint,08/04/2019 12:41:51 AM,,hubNashville Community,,,,False,134974.0,False,1431 Lischey Ave,NASHVILLE,5.0,37207,36.19855130000001,-86.76152530000002,"(36.19855130000001, -86.76152530000002)"
230572,477563,In Progress,Property Violations,Short Term Rental Complaint,Short Term Rental Complaint,10/08/2020 04:50:23 AM,,Mobile App,,,,False,477561.0,False,818 Shelby Ave,NASHVILLE,6.0,37206,36.17025599999999,-86.754533,"(36.17025599999999, -86.754533)"
231035,477561,In Progress,Property Violations,Short Term Rental Complaint,Short Term Rental Complaint,10/08/2020 04:45:35 AM,,Mobile App,,,,False,,False,818 Shelby Ave,NASHVILLE,6.0,37206,36.17025599999999,-86.754533,"(36.17025599999999, -86.754533)"
231066,477559,In Progress,Property Violations,Short Term Rental Complaint,Short Term Rental Complaint,10/08/2020 04:41:12 AM,,Mobile App,,,,False,477558.0,False,816 Shelby Ave,NASHVILLE,6.0,37206,36.170115700000004,-86.7546205,"(36.1701157, -86.7546205)"
231214,477565,In Progress,Property Violations,Short Term Rental Complaint,Short Term Rental Complaint,10/08/2020 05:38:51 AM,,hubNashville Community,,,,False,477561.0,False,818 Shelby Ave,NASHVILLE,6.0,37206,36.17025599999999,-86.754533,"(36.17025599999999, -86.754533)"
231260,477551,Closed,Permits,Short Term Rental Permit,Short Term Rental Permit,10/08/2020 03:14:39 AM,10/08/2020 02:51:28 PM,Mobile App,,,,False,,False,818 Shelby Ave,NASHVILLE,6.0,37206,36.17025599999999,-86.754533,"(36.17025599999999, -86.754533)"
231403,477562,In Progress,Property Violations,Short Term Rental Complaint,Short Term Rental Complaint,10/08/2020 04:47:40 AM,,Mobile App,,,,False,477558.0,False,816 Shelby Ave,NASHVILLE,6.0,37206,36.170115700000004,-86.7546205,"(36.1701157, -86.7546205)"
232124,168036,In Progress,Property Violations,Short Term Rental Complaint,Short Term Rental Complaint,04/11/2019 04:28:20 PM,,Phone,,,,False,,False,170 Lelawood Cir,NASHVILLE,24.0,37209,36.134907,-86.86468100000002,"(36.134907, -86.86468100000002)"
232483,16042,Closed,Permits,Short Term Rental Permit,Short Term Rental Permit,09/19/2017 04:24:56 PM,09/19/2017 04:25:05 PM,Phone,,,,False,,False,,,,,,,
232797,478444,Closed,Property Violations,Short Term Rental Complaint,Short Term Rental Complaint,10/09/2020 02:16:41 PM,10/09/2020 02:45:38 PM,hubNashville Community,,,,False,,False,1610 Wheless St,NASHVILLE,21.0,37208,36.176932,-86.807955,"(36.176932, -86.807955)"
232842,15462,Closed,Permits,Short Term Rental Permit,Short Term Rental Permit,09/15/2017 03:51:00 PM,09/22/2017 01:02:43 PM,Phone,,Resident,,False,,False,,,,,,,
233654,484568,Closed,Permits,Short Term Rental Permit,Short Term Rental Permit,10/20/2020 05:12:33 PM,10/20/2020 06:20:17 PM,hubNashville Community,,,,False,,False,817 3rd Ave N,NASHVILLE,19.0,37201,36.171521011610494,-86.78313190674591,"(36.171521011610494, -86.78313190674591)"
233846,77008,In Progress,Property Violations,Short Term Rental Complaint,Short Term Rental Complaint,06/21/2018 01:57:38 PM,,hubNashville Community,,Resident,,False,,False,142 Rosa L Parks Blvd,NASHVILLE,19.0,37203,36.160112702204316,-86.78284448026449,"(36.160112702204316, -86.7828444802645)"
234357,485023,Closed,Property Violations,Short Term Rental Complaint,Short Term Rental Complaint,10/21/2020 05:34:58 AM,11/07/2020 08:13:29 AM,hubNashville Community,,,,False,,False,1109 W Grove Ave,NASHVILLE,17.0,37203,36.1345975,-86.78787899999998,"(36.1345975, -86.78787899999999)"
234909,323754,In Progress,Property Violations,Short Term Rental Complaint,Short Term Rental Complaint,03/10/2020 12:14:25 PM,,hubNashville Community,,,,False,,False,532 Weakley Ave,NASHVILLE,2.0,37207,36.1969735,-86.781903,"(36.1969735, -86.781903)"
235173,239439,Assigned,Property Violations,Short Term Rental Complaint,Short Term Rental Complaint,08/29/2019 01:01:57 AM,,hubNashville Community,,,,False,,False,821 Hillview Heights,NASHVILLE,17.0,37204,36.12596,-86.78045999999999,"(36.12596, -86.78046)"
235708,487694,Closed,Property Violations,Short Term Rental Complaint,Short Term Rental Complaint,10/24/2020 05:42:54 AM,10/29/2020 08:19:08 AM,hubNashville Community,,,,False,,False,2018 10th Ave N,NASHVILLE,2.0,37208,36.18587331161661,-86.80462729999998,"(36.185873311616604, -86.80462729999999)"
235795,484965,Closed,Property Violations,Short Term Rental Complaint,Short Term Rental Complaint,10/20/2020 10:38:43 PM,10/29/2020 08:18:43 AM,Mobile App,,,,False,484962.0,False,127 Fern Ave,NASHVILLE,2.0,37207,36.19714260000001,-86.7812046,"(36.19714260000001, -86.7812046)"
238254,255792,In Progress,Property Violations,Short Term Rental Complaint,Short Term Rental Complaint,10/06/2019 04:13:44 AM,,Mobile App,,,,False,,False,716 S 12th St,NASHVILLE,6.0,37206,36.16644618525967,-86.75017185509205,"(36.16644618525967, -86.75017185509205)"
238913,495799,Closed,Property Violations,Short Term Rental Complaint,Short Term Rental Complaint,11/05/2020 02:25:57 PM,11/06/2020 12:23:33 PM,hubNashville Community,,,,False,487210.0,False,2912 Tuggle Ave,NASHVILLE,16.0,37211,36.10855,-86.73319000000001,"(36.10855, -86.73319)"
239219,492864,Closed,Property Violations,Short Term Rental Complaint,Short Term Rental Complaint,11/02/2020 03:43:04 AM,11/04/2020 02:25:05 PM,hubNashville Community,,,,False,,False,2912 Tuggle Ave,NASHVILLE,16.0,37211,36.108545899999996,-86.733192,"(36.1085459, -86.733192)"
239221,492866,Closed,Property Violations,Short Term Rental Complaint,Short Term Rental Complaint,11/02/2020 03:56:46 AM,11/05/2020 08:20:02 AM,hubNashville Community,,,,False,,False,2911 Tuggle Ave,NASHVILLE,16.0,37211,36.1087586,-86.73375940000001,"(36.1087586, -86.7337594)"
240275,217220,In Progress,Property Violations,Short Term Rental Complaint,Short Term Rental Complaint,07/18/2019 10:29:50 PM,,Mobile App,,,,False,186351.0,False,109 Fern Ave,NASHVILLE,2.0,37207,36.19648107275157,-86.77960641682148,"(36.19648107275157, -86.77960641682148)"
240279,2002,Closed,Permits,Short Term Rental Permit,Short Term Rental Permit,07/24/2017 01:32:52 PM,08/04/2017 05:45:59 PM,Phone,,,,False,,False,,,,,,,
240294,241141,In Progress,Property Violations,Short Term Rental Complaint,Short Term Rental Complaint,09/03/2019 04:00:23 PM,,Mobile App,,,,False,,False,1004 Wade Ave,NASHVILLE,17.0,37203,36.13654836528345,-86.78505901247263,"(36.136548365283446, -86.78505901247263)"
240448,1694,Closed,Permits,Short Term Rental Permit,Short Term Rental Permit,07/21/2017 02:53:14 PM,08/04/2017 05:41:35 PM,Phone,,,,False,,False,,,,,,,
240548,1543,Closed,Property Violations,Short Term Rental Complaint,Short Term Rental Complaint,07/20/2017 08:22:24 PM,07/27/2017 05:10:47 PM,Phone,,,,False,,False,,,,,,,
242056,312535,Assigned,Permits,Short Term Rental Permit,Short Term Rental Permit,02/24/2020 05:03:03 PM,,Phone,,,,False,,False,940 Oneida Ave,NASHVILLE,5.0,37207,36.19847,-86.75133000000001,"(36.19847, -86.75133)"
242566,305704,Closed,Property Violations,Short Term Rental Complaint,Short Term Rental Complaint,02/10/2020 08:32:31 PM,02/12/2020 08:13:06 AM,hubNashville Community,,,,False,,False,962 9th Ave S,NASHVILLE,17.0,37203,36.145230311599335,-86.78036749325409,"(36.145230311599335, -86.78036749325409)"
243500,304426,Closed,Permits,Short Term Rental Permit,Short Term Rental Permit,02/07/2020 03:32:20 AM,02/10/2020 02:05:12 PM,hubNashville Community,,,,False,,False,2154 Byrum Ave,NASHVILLE,17.0,37203,36.13435661422571,-86.76326882689918,"(36.13435661422571, -86.76326882689919)"
